[{"slug": "aba-nigeria", "name": "Aba Nigeria Temple", "country": "Nigeria", "state": "Abia State", "county": null, "city": "Aba", "latitude": 5.147644, "longitude": 7.356719, "dateDedicated": "2005-08-07T00:00:00Z", "templeStatusId": 1}, {"slug": "abidjan-ivory-coast", "name": "Abidjan Ivory Coast Temple", "country": "Cote d'Ivoire", "state": null, "county": null, "city": "Abidjan", "latitude": 5.362307, "longitude": -3.976865, "dateDedicated": "2025-05-25T00:00:00Z", "templeStatusId": 1}, {"slug": "abuja-nigeria", "name": "Abuja Nigeria Temple", "country": "Nigeria", "state": null, "county": null, "city": "Abuja", "latitude": null, "longitude": null, "dateDedicated": null, "templeStatusId": 4}, {"slug": "accra-ghana", "name": "Accra Ghana Temple", "country": "Ghana", "state": null, "county": null, "city": "Accra", "latitude": 5.56749, "longitude": -0.193706, "dateDedicated": "2004-01-11T00:00:00Z", "templeStatusId": 1}, {"slug": "adelaide-australia", "name": "Adelaide Australia Temple", "country": "Australia", "state": "South Australia", "county": null, "city": "Marden", "latitude": -34.892473, "longitude": 138.635002, "dateDedicated": "2000-06-15T00:00:00Z", "templeStatusId": 1}, {"slug": "alabang-philippines", "name": "Alabang Philippines Temple", "country": "Philippines", "state": "Metro Manila", "county": null, "city": "Muntinlupa", "latitude": 14.412913, "longitude": 121.037838, "dateDedicated": "2026-01-18T00:00:00Z", "templeStatusId": 3}, {"slug": "albuquerque-new-mexico", "name": "Albuquerque New Mexico Temple", "country": "United States", "state": "New Mexico", "county": "Bernalillo", "city": "Albuquerque", "latitude": 35.167684, "longitude": -106.525301, "dateDedicated": "2000-03-05T00:00:00Z", "templeStatusId": 1}, {"slug": "anchorage-alaska", "name": "Anchorage Alaska Temple", "country": "United States", "state": "Alaska", "county": "Anchorage Borough", "city": "Anchorage", "latitude": 61.101627, "longitude": -149.840512, "dateDedicated": "1999-01-09T00:00:00Z", "templeStatusId": 1}, {"slug": "antananarivo-madagascar", "name": "Antananarivo Madagascar Temple", "country": "Madagascar", "state": null, "county": null, "city": "Antananarivo", "latitude": -18.85393042, "longitude": 47.478333, "dateDedicated": null, "templeStatusId": 3}, {"slug": "antofagasta-chile", "name": "Antofagasta Chile Temple", "country": "Chile", "state": null, "county": null, "city": "Antofagasta", "latitude": -23.571891, "longitude": -70.394525, "dateDedicated": "2025-06-15T00:00:00Z", "templeStatusId": 1}, {"slug": "apia-samoa", "name": "Apia Samoa Temple", "country": "Samoa", "state": "Apia", "county": null, "city": "Pesega", "latitude": -13.838064, "longitude": -171.783034, "dateDedicated": "1983-08-05T00:00:00Z", "templeStatusId": 1}, {"slug": "arequipa-peru", "name": "Arequipa Peru Temple", "country": "Peru", "state": "Arequipa", "county": "Cayma", "city": "Arequipa", "latitude": -16.375203, "longitude": -71.538477, "dateDedicated": "2019-12-15T00:00:00Z", "templeStatusId": 1}, {"slug": "asuncion-paraguay", "name": "Asunci\u00f3n Paraguay Temple", "country": "Paraguay", "state": null, "county": null, "city": "Asunci\u00f3n", "latitude": -25.287916, "longitude": -57.602869, "dateDedicated": "2002-05-19T00:00:00Z", "templeStatusId": 1}, {"slug": "atlanta-georgia", "name": "Atlanta Georgia Temple", "country": "United States", "state": "Georgia", "county": "Fulton", "city": "Sandy Springs", "latitude": 33.931896, "longitude": -84.362394, "dateDedicated": "1983-06-01T00:00:00Z", "templeStatusId": 1}, {"slug": "auckland-new-zealand", "name": "Auckland New Zealand Temple", "country": "New Zealand", "state": null, "county": null, "city": "Auckland", "latitude": -36.993227, "longitude": 174.890191, "dateDedicated": "2025-04-13T00:00:00Z", "templeStatusId": 1}, {"slug": "austin-texas", "name": "Austin Texas Temple", "country": "United States", "state": "Texas", "county": "Williamson", "city": "Cedar Park", "latitude": 30.51681449, "longitude": -97.79687, "dateDedicated": null, "templeStatusId": 3}, {"slug": "bacolod-philippines", "name": "Bacolod Philippines Temple", "country": "Philippines", "state": null, "county": null, "city": "Bacolod", "latitude": 10.696648, "longitude": 122.989455, "dateDedicated": null, "templeStatusId": 3}, {"slug": "bahia-blanca-argentina", "name": "Bah\u00eda Blanca Argentina Temple", "country": "Argentina", "state": null, "county": null, "city": "Bahia Blanca", "latitude": -38.69117, "longitude": -62.235937, "dateDedicated": null, "templeStatusId": 3}, {"slug": "bakersfield-california", "name": "Bakersfield California Temple", "country": "United States", "state": "California", "county": "Kern", "city": "Bakersfield", "latitude": 35.35502332, "longitude": -119.138634, "dateDedicated": null, "templeStatusId": 4}, {"slug": "bangkok-thailand", "name": "Bangkok Thailand Temple", "country": "Thailand", "state": null, "county": null, "city": "Bangkok", "latitude": 13.749491, "longitude": 100.562527, "dateDedicated": "2023-10-22T00:00:00Z", "templeStatusId": 1}, {"slug": "barcelona-spain", "name": "Barcelona Spain Temple", "country": "Spain", "state": "Barcelona", "county": null, "city": "Sant Cugat del Vall\u00e8s", "latitude": 41.48746553, "longitude": 2.06931235, "dateDedicated": null, "templeStatusId": 4}, {"slug": "barranquilla-colombia", "name": "Barranquilla Colombia Temple", "country": "Colombia", "state": "Atlantico", "county": null, "city": "Barranquilla", "latitude": 11.016798, "longitude": -74.86261, "dateDedicated": "2018-12-09T00:00:00Z", "templeStatusId": 1}, {"slug": "baton-rouge-louisiana", "name": "Baton Rouge Louisiana Temple", "country": "United States", "state": "Louisiana", "county": "East Baton Rouge Parish", "city": "Baton Rouge", "latitude": 30.362664, "longitude": -91.108385, "dateDedicated": "2000-07-16T00:00:00Z", "templeStatusId": 1}, {"slug": "beira-mozambique", "name": "Beira Mozambique Temple", "country": "Mozambique", "state": null, "county": null, "city": "Beira", "latitude": -19.84590986, "longitude": 34.8551898, "dateDedicated": null, "templeStatusId": 4}, {"slug": "belem-brazil", "name": "Bel\u00e9m Brazil Temple", "country": "Brazil", "state": "Par\u00e1", "county": null, "city": "Bel\u00e9m", "latitude": -1.387242, "longitude": -48.459894, "dateDedicated": "2022-11-20T00:00:00Z", "templeStatusId": 1}, {"slug": "belo-horizonte-brazil", "name": "Belo Horizonte Brazil Temple", "country": "Brazil", "state": "Minas Gerais", "county": null, "city": "Belo Horizonte", "latitude": -19.87920488, "longitude": -43.978641, "dateDedicated": null, "templeStatusId": 3}, {"slug": "bengaluru-india", "name": "Bengaluru India Temple", "country": "India", "state": "Karnataka", "county": null, "city": "Bengaluru", "latitude": 12.992096, "longitude": 77.704714, "dateDedicated": null, "templeStatusId": 3}, {"slug": "benin-city-nigeria", "name": "Benin City Nigeria Temple", "country": "Nigeria", "state": null, "county": null, "city": "Benin City", "latitude": 6.31456524, "longitude": 5.62516446, "dateDedicated": null, "templeStatusId": 3}, {"slug": "bentonville-arkansas", "name": "Bentonville Arkansas Temple", "country": "United States", "state": "Arkansas", "county": "Benton", "city": "Bentonville", "latitude": 36.38500576, "longitude": -94.183255, "dateDedicated": "2023-09-17T00:00:00Z", "templeStatusId": 1}, {"slug": "bern-switzerland", "name": "Bern Switzerland Temple", "country": "Switzerland", "state": null, "county": null, "city": "Zollikofen", "latitude": 47.002192, "longitude": 7.458244, "dateDedicated": "1955-09-11T00:00:00Z", "templeStatusId": 1}, {"slug": "billings-montana", "name": "Billings Montana Temple", "country": "United States", "state": "Montana", "county": "Yellowstone", "city": "Billings", "latitude": 45.800505, "longitude": -108.63939, "dateDedicated": "1999-11-20T00:00:00Z", "templeStatusId": 1}, {"slug": "birmingham-alabama", "name": "Birmingham Alabama Temple", "country": "United States", "state": "Alabama", "county": "Jefferson", "city": "Gardendale", "latitude": 33.674623, "longitude": -86.821236, "dateDedicated": "2000-09-03T00:00:00Z", "templeStatusId": 1}, {"slug": "birmingham-england", "name": "Birmingham England Temple", "country": "United Kingdom", "state": null, "county": null, "city": "Birmingham", "latitude": 52.53551078, "longitude": -1.8123859, "dateDedicated": null, "templeStatusId": 3}, {"slug": "bismarck-north-dakota", "name": "Bismarck North Dakota Temple", "country": "United States", "state": "North Dakota", "county": "Burleigh", "city": "Bismarck", "latitude": 46.838889, "longitude": -100.813979, "dateDedicated": "1999-09-19T00:00:00Z", "templeStatusId": 1}, {"slug": "bogota-colombia", "name": "Bogot\u00e1 Colombia Temple", "country": "Colombia", "state": "Distrito Capital", "county": null, "city": "Bogot\u00e1", "latitude": 4.707801, "longitude": -74.056247, "dateDedicated": "1999-04-24T00:00:00Z", "templeStatusId": 1}, {"slug": "boise-idaho", "name": "Boise Idaho Temple", "country": "United States", "state": "Idaho", "county": "Ada", "city": "Boise", "latitude": 43.593523, "longitude": -116.275034, "dateDedicated": "1984-05-25T00:00:00Z", "templeStatusId": 1}, {"slug": "boston-massachusetts", "name": "Boston Massachusetts Temple", "country": "United States", "state": "Massachusetts", "county": "Middlesex", "city": "Belmont", "latitude": 42.412002, "longitude": -71.188091, "dateDedicated": "2000-10-01T00:00:00Z", "templeStatusId": 1}, {"slug": "bountiful-utah", "name": "Bountiful Utah Temple", "country": "United States", "state": "Utah", "county": "Davis", "city": "Bountiful", "latitude": 40.882853, "longitude": -111.846812, "dateDedicated": "1995-01-08T00:00:00Z", "templeStatusId": 1}, {"slug": "brasilia-brazil", "name": "Bras\u00edlia Brazil Temple", "country": "Brazil", "state": "Distrito Federal", "county": null, "city": "Brasilia", "latitude": -15.747835, "longitude": -47.880945, "dateDedicated": "2023-09-17T00:00:00Z", "templeStatusId": 1}, {"slug": "brazzaville-republic-of-the-congo", "name": "Brazzaville Republic of the Congo Temple", "country": "Republic of the Congo", "state": null, "county": null, "city": "Brazzaville", "latitude": -4.28276597, "longitude": 15.2584706, "dateDedicated": null, "templeStatusId": 3}, {"slug": "brigham-city-utah", "name": "Brigham City Utah Temple", "country": "United States", "state": "Utah", "county": "Box Elder", "city": "Brigham City", "latitude": 41.505376, "longitude": -112.016592, "dateDedicated": "2012-09-23T00:00:00Z", "templeStatusId": 1}, {"slug": "brisbane-australia", "name": "Brisbane Australia Temple", "country": "Australia", "state": "Queensland", "county": null, "city": "Kangaroo Point", "latitude": -27.480886, "longitude": 153.033841, "dateDedicated": "2003-06-15T00:00:00Z", "templeStatusId": 1}, {"slug": "brisbane-australia-south", "name": "Brisbane Australia South Temple", "country": "Australia", "state": null, "county": null, "city": "Brisbane", "latitude": null, "longitude": null, "dateDedicated": null, "templeStatusId": 4}, {"slug": "brussels-belgium", "name": "Brussels Belgium Temple", "country": "Belgium", "state": null, "county": null, "city": "Brussels", "latitude": 50.84171761, "longitude": 4.36710126, "dateDedicated": null, "templeStatusId": 4}, {"slug": "budapest-hungary", "name": "Budapest Hungary Temple", "country": "Hungary", "state": null, "county": null, "city": "Budapest", "latitude": 47.57024544, "longitude": 19.00634892, "dateDedicated": null, "templeStatusId": 3}, {"slug": "buenos-aires-argentina", "name": "Buenos Aires Argentina Temple", "country": "Argentina", "state": "Buenos Aires", "county": null, "city": "Ciudad Evita", "latitude": -34.729286, "longitude": -58.518225, "dateDedicated": "1986-01-17T00:00:00Z", "templeStatusId": 1}, {"slug": "buenos-aires-city-center-argentina", "name": "Buenos Aires City Center Argentina Temple", "country": "Argentina", "state": null, "county": null, "city": "Buenos Aires", "latitude": -34.59917085, "longitude": -58.37306, "dateDedicated": null, "templeStatusId": 4}, {"slug": "burley-idaho", "name": "Burley Idaho Temple", "country": "United States", "state": "Idaho", "county": "Cassia", "city": "Burley", "latitude": 42.52659109, "longitude": -113.764841, "dateDedicated": "2026-01-11T00:00:00Z", "templeStatusId": 3}, {"slug": "busan-korea", "name": "Busan Korea Temple", "country": "South Korea", "state": null, "county": null, "city": "Busan", "latitude": null, "longitude": null, "dateDedicated": null, "templeStatusId": 4}, {"slug": "cagayan-de-oro-philippines", "name": "Cagayan de Oro Philippines Temple", "country": "Philippines", "state": "Misamis", "county": null, "city": "Cagayan de Oro City", "latitude": 8.47908926, "longitude": 124.6598511, "dateDedicated": null, "templeStatusId": 3}, {"slug": "calabar-nigeria", "name": "Calabar Nigeria Temple", "country": "Nigeria", "state": null, "county": null, "city": "Calabar", "latitude": null, "longitude": null, "dateDedicated": null, "templeStatusId": 4}, {"slug": "caldwell-idaho", "name": "Caldwell Idaho Temple", "country": "United States", "state": "Idaho", "county": "Canyon", "city": "Caldwell", "latitude": null, "longitude": null, "dateDedicated": null, "templeStatusId": 4}, {"slug": "calgary-alberta", "name": "Calgary Alberta Temple", "country": "Canada", "state": "Alberta", "county": null, "city": "Calgary", "latitude": 51.140861, "longitude": -114.2333, "dateDedicated": "2012-10-28T00:00:00Z", "templeStatusId": 1}, {"slug": "cali-colombia", "name": "Cali Colombia Temple", "country": "Colombia", "state": null, "county": null, "city": "Cali", "latitude": 3.48698324, "longitude": -76.521499, "dateDedicated": null, "templeStatusId": 3}, {"slug": "campinas-brazil", "name": "Campinas Brazil Temple", "country": "Brazil", "state": "S\u00e3o Paulo", "county": null, "city": "Campinas", "latitude": -22.896534, "longitude": -47.001133, "dateDedicated": "2002-05-17T00:00:00Z", "templeStatusId": 1}, {"slug": "campo-grande-brazil", "name": "Campo Grande Brazil Temple", "country": "Brazil", "state": "Mato Grosso do Sul", "county": null, "city": "Campo Grande", "latitude": null, "longitude": null, "dateDedicated": null, "templeStatusId": 4}, {"slug": "cancun-mexico", "name": "Canc\u00fan Mexico Temple", "country": "Mexico", "state": null, "county": null, "city": "Canc\u00fan", "latitude": null, "longitude": null, "dateDedicated": null, "templeStatusId": 4}, {"slug": "cape-coast-ghana", "name": "Cape Coast Ghana Temple", "country": "Ghana", "state": null, "county": null, "city": "Cape Coast", "latitude": null, "longitude": null, "dateDedicated": null, "templeStatusId": 4}, {"slug": "cape-town-south-africa", "name": "Cape Town South Africa Temple", "country": "South Africa", "state": null, "county": null, "city": "Cape Town", "latitude": -33.94114387, "longitude": 18.4797749, "dateDedicated": null, "templeStatusId": 4}, {"slug": "caracas-venezuela", "name": "Caracas Venezuela Temple", "country": "Venezuela", "state": "Dependencias Federales", "county": null, "city": "Caracas 1062-A", "latitude": 10.470849, "longitude": -66.837293, "dateDedicated": "2000-08-20T00:00:00Z", "templeStatusId": 1}, {"slug": "cardston-alberta", "name": "Cardston Alberta Temple", "country": "Canada", "state": "Alberta", "county": null, "city": "Cardston", "latitude": 49.19835, "longitude": -113.309394, "dateDedicated": "1923-08-26T00:00:00Z", "templeStatusId": 1}, {"slug": "casper-wyoming", "name": "Casper Wyoming Temple", "country": "United States", "state": "Wyoming", "county": "Natrona", "city": "Casper", "latitude": 42.80908928, "longitude": -106.361814, "dateDedicated": "2024-11-24T00:00:00Z", "templeStatusId": 1}, {"slug": "cebu-city-philippines", "name": "Cebu City Philippines Temple", "country": "Philippines", "state": "Cebu", "county": null, "city": "Cebu City", "latitude": 10.327659, "longitude": 123.898299, "dateDedicated": "2010-06-13T00:00:00Z", "templeStatusId": 1}, {"slug": "cedar-city-utah", "name": "Cedar City Utah Temple", "country": "United States", "state": "Utah", "county": "Iron", "city": "Cedar City", "latitude": 37.671734, "longitude": -113.096271, "dateDedicated": "2017-12-10T00:00:00Z", "templeStatusId": 1}, {"slug": "charlotte-north-carolina", "name": "Charlotte North Carolina Temple", "country": "United States", "state": "North Carolina", "county": "Union", "city": "Weddington", "latitude": 35.00752312, "longitude": -80.76566731, "dateDedicated": null, "templeStatusId": 4}, {"slug": "chicago-illinois", "name": "Chicago Illinois Temple", "country": "United States", "state": "Illinois", "county": "Cook", "city": "Glenview", "latitude": 42.086829, "longitude": -87.859501, "dateDedicated": "1985-08-09T00:00:00Z", "templeStatusId": 1}, {"slug": "chiclayo-peru", "name": "Chiclayo Peru Temple", "country": "Peru", "state": null, "county": null, "city": "Chiclayo", "latitude": null, "longitude": null, "dateDedicated": null, "templeStatusId": 4}, {"slug": "chihuahua-mexico", "name": "Chihuahua Mexico Temple", "country": "Mexico", "state": "Chihuahua", "county": null, "city": "Chihuahua", "latitude": 28.64373023, "longitude": -106.14986, "dateDedicated": null, "templeStatusId": 4}, {"slug": "chorrillos-peru", "name": "Chorrillos Peru Temple", "country": "Peru", "state": null, "county": null, "city": "Chorrillos", "latitude": null, "longitude": null, "dateDedicated": null, "templeStatusId": 4}, {"slug": "cincinnati-ohio", "name": "Cincinnati Ohio Temple", "country": "United States", "state": "Ohio", "county": "Warren", "city": "Mason", "latitude": 39.32725034, "longitude": -84.3168764, "dateDedicated": null, "templeStatusId": 4}, {"slug": "ciudad-juarez-mexico", "name": "Ciudad Ju\u00e1rez Mexico Temple", "country": "Mexico", "state": "Chihuahua", "county": null, "city": "Ciudad Ju\u00e1rez", "latitude": 31.736269, "longitude": -106.463209, "dateDedicated": "2000-02-26T00:00:00Z", "templeStatusId": 1}, {"slug": "cleveland-ohio", "name": "Cleveland Ohio Temple", "country": "United States", "state": "Ohio", "county": "Cuyahoga", "city": "Independence", "latitude": 41.39986912, "longitude": -81.636826, "dateDedicated": null, "templeStatusId": 3}, {"slug": "coban-guatemala", "name": "Cob\u00e1n Guatemala Temple", "country": "Guatemala", "state": "Alta Verapaz", "county": null, "city": "Cob\u00e1n", "latitude": 15.459077, "longitude": -90.365166, "dateDedicated": "2024-06-09T00:00:00Z", "templeStatusId": 1}, {"slug": "cochabamba-bolivia", "name": "Cochabamba Bolivia Temple", "country": "Bolivia", "state": null, "county": null, "city": "Cochabamba", "latitude": -17.363644, "longitude": -66.147644, "dateDedicated": "2000-04-30T00:00:00Z", "templeStatusId": 1}, {"slug": "cody-wyoming", "name": "Cody Wyoming Temple", "country": "United States", "state": "Wyoming", "county": "Park", "city": "Cody", "latitude": 44.51148354, "longitude": -109.081796, "dateDedicated": null, "templeStatusId": 3}, {"slug": "coeur-d-alene-idaho", "name": "Coeur d'Alene Idaho Temple", "country": "United States", "state": "Idaho", "county": "Kootenai", "city": "Coeur d'Alene", "latitude": null, "longitude": null, "dateDedicated": null, "templeStatusId": 4}, {"slug": "colonia-juarez-chihuahua-mexico", "name": "Colonia Ju\u00e1rez Chihuahua Mexico Temple", "country": "Mexico", "state": "Chihuahua", "county": null, "city": "Colonia Ju\u00e1rez", "latitude": 30.305251, "longitude": -108.082038, "dateDedicated": "1999-03-06T00:00:00Z", "templeStatusId": 1}, {"slug": "colorado-springs-colorado", "name": "Colorado Springs Colorado Temple", "country": "United States", "state": "Colorado", "county": "El Paso", "city": "Colorado Springs", "latitude": 39.01830571, "longitude": -104.784452, "dateDedicated": null, "templeStatusId": 4}, {"slug": "columbia-river-washington", "name": "Columbia River Washington Temple", "country": "United States", "state": "Washington", "county": "Benton", "city": "Richland", "latitude": 46.226733, "longitude": -119.274893, "dateDedicated": "2001-11-18T00:00:00Z", "templeStatusId": 1}, {"slug": "columbia-south-carolina", "name": "Columbia South Carolina Temple", "country": "United States", "state": "South Carolina", "county": "Richland", "city": "Hopkins", "latitude": 33.959638, "longitude": -80.893981, "dateDedicated": "1999-10-16T00:00:00Z", "templeStatusId": 1}, {"slug": "columbus-ohio", "name": "Columbus Ohio Temple", "country": "United States", "state": "Ohio", "county": "Franklin", "city": "Columbus", "latitude": 39.994089, "longitude": -83.113214, "dateDedicated": "1999-09-04T00:00:00Z", "templeStatusId": 1}, {"slug": "concepcion-chile", "name": "Concepci\u00f3n Chile Temple", "country": "Chile", "state": "Bio-Bio", "county": null, "city": "Concepci\u00f3n", "latitude": -36.851499, "longitude": -73.049966, "dateDedicated": "2018-10-28T00:00:00Z", "templeStatusId": 1}, {"slug": "copenhagen-denmark", "name": "Copenhagen Denmark Temple", "country": "Denmark", "state": null, "county": null, "city": "Frederiksberg", "latitude": 55.692677, "longitude": 12.53392, "dateDedicated": "2004-05-23T00:00:00Z", "templeStatusId": 1}, {"slug": "cordoba-argentina", "name": "C\u00f3rdoba Argentina Temple", "country": "Argentina", "state": null, "county": null, "city": "C\u00f3rdoba", "latitude": -31.358873, "longitude": -64.245809, "dateDedicated": "2015-05-17T00:00:00Z", "templeStatusId": 1}, {"slug": "cuernavaca-mexico", "name": "Cuernavaca Mexico Temple", "country": "Mexico", "state": "Morelos", "county": null, "city": "Cuernavaca", "latitude": 18.93473808, "longitude": -99.226499, "dateDedicated": null, "templeStatusId": 4}, {"slug": "culiacan-mexico", "name": "Culiac\u00e1n Mexico Temple", "country": "Mexico", "state": "Sinaloa", "county": null, "city": "Culiac\u00e1n", "latitude": 24.79184902, "longitude": -107.44189, "dateDedicated": null, "templeStatusId": 4}, {"slug": "curitiba-brazil", "name": "Curitiba Brazil Temple", "country": "Brazil", "state": "Paran\u00e1", "county": null, "city": "Curitiba", "latitude": -25.441304, "longitude": -49.342138, "dateDedicated": "2008-06-01T00:00:00Z", "templeStatusId": 1}, {"slug": "cusco-peru", "name": "Cusco Peru Temple", "country": "Peru", "state": null, "county": null, "city": "Cusco", "latitude": -13.51593102, "longitude": -71.984943, "dateDedicated": null, "templeStatusId": 4}, {"slug": "dallas-texas", "name": "Dallas Texas Temple", "country": "United States", "state": "Texas", "county": "Dallas", "city": "Dallas", "latitude": 32.914288, "longitude": -96.796525, "dateDedicated": "1984-10-19T00:00:00Z", "templeStatusId": 1}, {"slug": "davao-philippines", "name": "Davao Philippines Temple", "country": "Philippines", "state": "Davao del Sur", "county": null, "city": "Davao City", "latitude": 7.088597, "longitude": 125.579755, "dateDedicated": null, "templeStatusId": 3}, {"slug": "denver-colorado", "name": "Denver Colorado Temple", "country": "United States", "state": "Colorado", "county": "Arapahoe", "city": "Centennial", "latitude": 39.568698, "longitude": -104.965782, "dateDedicated": "1986-10-24T00:00:00Z", "templeStatusId": 1}, {"slug": "des-moines-iowa", "name": "Des Moines Iowa Temple", "country": "United States", "state": "Iowa", "county": "Polk", "city": "Johnston", "latitude": 41.67117719, "longitude": -93.742485, "dateDedicated": null, "templeStatusId": 4}, {"slug": "deseret-peak-utah", "name": "Deseret Peak Utah Temple", "country": "United States", "state": "Utah", "county": "Tooele", "city": "Tooele", "latitude": 40.57266168, "longitude": -112.31397, "dateDedicated": "2024-11-10T00:00:00Z", "templeStatusId": 1}, {"slug": "detroit-michigan", "name": "Detroit Michigan Temple", "country": "United States", "state": "Michigan", "county": "Oakland", "city": "Bloomfield Hills", "latitude": 42.566266, "longitude": -83.229983, "dateDedicated": "1999-10-23T00:00:00Z", "templeStatusId": 1}, {"slug": "draper-utah", "name": "Draper Utah Temple", "country": "United States", "state": "Utah", "county": "Salt Lake", "city": "Draper", "latitude": 40.495893, "longitude": -111.840748, "dateDedicated": "2009-03-20T00:00:00Z", "templeStatusId": 1}, {"slug": "dubai-united-arab-emirates", "name": "Dubai United Arab Emirates Temple", "country": "United Arab Emirates", "state": null, "county": null, "city": "Dubai", "latitude": null, "longitude": null, "dateDedicated": null, "templeStatusId": 4}, {"slug": "dublin-ireland", "name": "Dublin Ireland Temple", "country": "Ireland", "state": null, "county": null, "city": "Dublin", "latitude": null, "longitude": null, "dateDedicated": null, "templeStatusId": 4}, {"slug": "durban-south-africa", "name": "Durban South Africa Temple", "country": "South Africa", "state": "KwaZulu-Natal", "county": null, "city": "Umhlanga", "latitude": -29.708455, "longitude": 31.073671, "dateDedicated": "2020-02-16T00:00:00Z", "templeStatusId": 1}, {"slug": "edinburgh-scotland", "name": "Edinburgh Scotland Temple", "country": "United Kingdom", "state": "Scotland", "county": null, "city": "Edinburgh", "latitude": null, "longitude": null, "dateDedicated": null, "templeStatusId": 4}, {"slug": "edmonton-alberta", "name": "Edmonton Alberta Temple", "country": "Canada", "state": "Alberta", "county": null, "city": "Edmonton", "latitude": 53.489593, "longitude": -113.570538, "dateDedicated": "1999-12-11T00:00:00Z", "templeStatusId": 1}, {"slug": "eket-nigeria", "name": "Eket Nigeria Temple", "country": "Nigeria", "state": "Akwa Ibom", "county": "Eket", "city": "Ikot Ibiok", "latitude": 4.65805213, "longitude": 7.96820663, "dateDedicated": null, "templeStatusId": 4}, {"slug": "el-paso-texas", "name": "El Paso Texas Temple", "country": "United States", "state": "Texas", "county": "El Paso", "city": "El Paso", "latitude": null, "longitude": null, "dateDedicated": null, "templeStatusId": 4}, {"slug": "elko-nevada", "name": "Elko Nevada Temple", "country": "United States", "state": "Nevada", "county": "Elko", "city": "Elko", "latitude": 40.85249525, "longitude": -115.750084, "dateDedicated": "2025-10-12T00:00:00Z", "templeStatusId": 1}, {"slug": "ephraim-utah", "name": "Ephraim Utah Temple", "country": "United States", "state": "Utah", "county": "Sanpete", "city": "Ephraim", "latitude": 39.36353987, "longitude": -111.576, "dateDedicated": null, "templeStatusId": 3}, {"slug": "fairbanks-alaska", "name": "Fairbanks Alaska Temple", "country": "United States", "state": "Alaska", "county": "Fairbanks North Star Borough", "city": "Fairbanks", "latitude": 64.84835925, "longitude": -147.85293, "dateDedicated": null, "templeStatusId": 3}, {"slug": "fairview-texas", "name": "Fairview Texas Temple", "country": "United States", "state": "Texas", "county": "Collin", "city": "Fairview", "latitude": 33.13031793, "longitude": -96.6310637, "dateDedicated": null, "templeStatusId": 4}, {"slug": "farmington-new-mexico", "name": "Farmington New Mexico Temple", "country": "United States", "state": "New Mexico", "county": "San Juan", "city": "Farmington", "latitude": 36.76909739, "longitude": -108.1654604, "dateDedicated": "2025-08-17T00:00:00Z", "templeStatusId": 1}, {"slug": "feather-river-california", "name": "Feather River California Temple", "country": "United States", "state": "California", "county": "Sutter", "city": "Yuba City", "latitude": 39.146344, "longitude": -121.639963, "dateDedicated": "2023-10-08T00:00:00Z", "templeStatusId": 1}, {"slug": "flagstaff-arizona", "name": "Flagstaff Arizona Temple", "country": "United States", "state": "Arizona", "county": "Coconino", "city": "Flagstaff", "latitude": null, "longitude": null, "dateDedicated": null, "templeStatusId": 4}, {"slug": "florianopolis-brazil", "name": "Florian\u00f3polis Brazil Temple", "country": "Brazil", "state": "Santa Catarina", "county": null, "city": "S\u00e3o Jos\u00e9", "latitude": -27.59219248, "longitude": -48.61723, "dateDedicated": null, "templeStatusId": 4}, {"slug": "fort-collins-colorado", "name": "Fort Collins Colorado Temple", "country": "United States", "state": "Colorado", "county": "Larimer", "city": "Fort Collins", "latitude": 40.494269, "longitude": -105.038685, "dateDedicated": "2016-10-16T00:00:00Z", "templeStatusId": 1}, {"slug": "fort-lauderdale-florida", "name": "Fort Lauderdale Florida Temple", "country": "United States", "state": "Florida", "county": "Broward", "city": "Davie", "latitude": 26.070899, "longitude": -80.355727, "dateDedicated": "2014-05-04T00:00:00Z", "templeStatusId": 1}, {"slug": "fort-worth-texas", "name": "Fort Worth Texas Temple", "country": "United States", "state": "Texas", "county": "Johnson", "city": "Burleson", "latitude": 32.51684225, "longitude": -97.3575068, "dateDedicated": null, "templeStatusId": 3}, {"slug": "fortaleza-brazil", "name": "Fortaleza Brazil Temple", "country": "Brazil", "state": "Cear\u00e1", "county": null, "city": "Fortaleza", "latitude": -3.747847, "longitude": -38.46101, "dateDedicated": "2019-06-02T00:00:00Z", "templeStatusId": 1}, {"slug": "frankfurt-germany", "name": "Frankfurt Germany Temple", "country": "Germany", "state": null, "county": null, "city": "Friedrichsdorf/TS", "latitude": 50.258246, "longitude": 8.641316, "dateDedicated": "1987-08-28T00:00:00Z", "templeStatusId": 1}, {"slug": "freetown-sierra-leone", "name": "Freetown Sierra Leone Temple", "country": "Sierra Leone", "state": null, "county": null, "city": "Freetown", "latitude": 8.38763235, "longitude": -13.1387593, "dateDedicated": null, "templeStatusId": 3}, {"slug": "freiberg-germany", "name": "Freiberg Germany Temple", "country": "Germany", "state": null, "county": null, "city": "Freiberg", "latitude": 50.922315, "longitude": 13.322541, "dateDedicated": "1985-06-29T00:00:00Z", "templeStatusId": 1}, {"slug": "fresno-california", "name": "Fresno California Temple", "country": "United States", "state": "California", "county": "Fresno", "city": "Fresno", "latitude": 36.828257, "longitude": -119.852911, "dateDedicated": "2000-04-09T00:00:00Z", "templeStatusId": 1}, {"slug": "fukuoka-japan", "name": "Fukuoka Japan Temple", "country": "Japan", "state": "Fukuoka", "county": null, "city": "Fukuoka-shi", "latitude": 33.572618, "longitude": 130.391704, "dateDedicated": "2000-06-11T00:00:00Z", "templeStatusId": 1}, {"slug": "gilbert-arizona", "name": "Gilbert Arizona Temple", "country": "United States", "state": "Arizona", "county": "Maricopa", "city": "Gilbert", "latitude": 33.291378, "longitude": -111.737365, "dateDedicated": "2014-03-02T00:00:00Z", "templeStatusId": 1}, {"slug": "goiania-brazil", "name": "Goi\u00e2nia Brazil Temple", "country": "Brazil", "state": "Goi\u00e1s", "county": null, "city": "Goi\u00e2nia", "latitude": null, "longitude": null, "dateDedicated": null, "templeStatusId": 4}, {"slug": "grand-junction-colorado", "name": "Grand Junction Colorado Temple", "country": "United States", "state": "Colorado", "county": "Mesa", "city": "Grand Junction", "latitude": 39.10144203, "longitude": -108.551144, "dateDedicated": "2025-10-19T00:00:00Z", "templeStatusId": 3}, {"slug": "grand-rapids-michigan", "name": "Grand Rapids Michigan Temple", "country": "United States", "state": "Michigan", "county": "Kent", "city": "Grand Rapids", "latitude": 42.91961105, "longitude": -85.5582121, "dateDedicated": null, "templeStatusId": 3}, {"slug": "greenville-south-carolina", "name": "Greenville South Carolina Temple", "country": "United States", "state": "South Carolina", "county": "Greenville", "city": "Greenville", "latitude": null, "longitude": null, "dateDedicated": null, "templeStatusId": 4}, {"slug": "guadalajara-mexico", "name": "Guadalajara Mexico Temple", "country": "Mexico", "state": "Jalisco", "county": null, "city": "Zapopan", "latitude": 20.66155, "longitude": -103.42307, "dateDedicated": "2001-04-29T00:00:00Z", "templeStatusId": 1}, {"slug": "guatemala-city-guatemala", "name": "Guatemala City Guatemala Temple", "country": "Guatemala", "state": "Guatemala", "county": null, "city": "Guatemala City", "latitude": 14.583303, "longitude": -90.485576, "dateDedicated": "1984-12-14T00:00:00Z", "templeStatusId": 1}, {"slug": "guayaquil-ecuador", "name": "Guayaquil Ecuador Temple", "country": "Ecuador", "state": null, "county": null, "city": "Guayaquil", "latitude": -2.156246, "longitude": -79.904877, "dateDedicated": "1999-08-01T00:00:00Z", "templeStatusId": 1}, {"slug": "halifax-nova-scotia", "name": "Halifax Nova Scotia Temple", "country": "Canada", "state": "Nova Scotia", "county": null, "city": "Dartmouth", "latitude": 44.66999, "longitude": -63.489038, "dateDedicated": "1999-11-14T00:00:00Z", "templeStatusId": 1}, {"slug": "hamburg-germany", "name": "Hamburg Germany Temple", "country": "Germany", "state": null, "county": null, "city": "Hamburg", "latitude": null, "longitude": null, "dateDedicated": null, "templeStatusId": 4}, {"slug": "hamilton-new-zealand", "name": "Hamilton New Zealand Temple", "country": "New Zealand", "state": null, "county": null, "city": "Hamilton", "latitude": -37.826397, "longitude": 175.224885, "dateDedicated": "1958-04-20T00:00:00Z", "templeStatusId": 1}, {"slug": "harare-zimbabwe", "name": "Harare Zimbabwe Temple", "country": "Zimbabwe", "state": null, "county": null, "city": "Harare", "latitude": -17.804085, "longitude": 31.082426, "dateDedicated": "2026-03-01T00:00:00Z", "templeStatusId": 3}, {"slug": "harrisburg-pennsylvania", "name": "Harrisburg Pennsylvania Temple", "country": "United States", "state": "Pennsylvania", "county": "Dauphin", "city": "Harrisburg", "latitude": 40.28396312, "longitude": -76.80293568, "dateDedicated": null, "templeStatusId": 4}, {"slug": "hartford-connecticut", "name": "Hartford Connecticut Temple", "country": "United States", "state": "Connecticut", "county": "Hartford", "city": "Farmington", "latitude": 41.73780896, "longitude": -72.844528, "dateDedicated": "2016-11-20T00:00:00Z", "templeStatusId": 1}, {"slug": "heber-valley-utah", "name": "Heber Valley Utah Temple", "country": "United States", "state": "Utah", "county": "Wasatch", "city": "Heber City", "latitude": 40.5066327, "longitude": -111.389452, "dateDedicated": null, "templeStatusId": 3}, {"slug": "helena-montana", "name": "Helena Montana Temple", "country": "United States", "state": "Montana", "county": "Lewis and Clark", "city": "Helena", "latitude": 46.63372488, "longitude": -112.01924, "dateDedicated": "2023-06-18T00:00:00Z", "templeStatusId": 1}, {"slug": "helsinki-finland", "name": "Helsinki Finland Temple", "country": "Finland", "state": null, "county": null, "city": "Espoo", "latitude": 60.225193, "longitude": 24.781785, "dateDedicated": "2006-10-22T00:00:00Z", "templeStatusId": 1}, {"slug": "hermosillo-sonora-mexico", "name": "Hermosillo Sonora Mexico Temple", "country": "Mexico", "state": "Sonora", "county": null, "city": "Hermosillo", "latitude": 29.102548, "longitude": -110.94687, "dateDedicated": "2000-02-27T00:00:00Z", "templeStatusId": 1}, {"slug": "hong-kong-china", "name": "Hong Kong China Temple", "country": "Hong Kong", "state": null, "county": null, "city": "Kowloon City", "latitude": 22.34045, "longitude": 114.177336, "dateDedicated": "1996-05-26T00:00:00Z", "templeStatusId": 1}, {"slug": "honolulu-hawaii", "name": "Honolulu Hawaii Temple", "country": "United States", "state": "Hawaii", "county": "Honolulu", "city": "Honolulu", "latitude": null, "longitude": null, "dateDedicated": null, "templeStatusId": 4}, {"slug": "houston-texas", "name": "Houston Texas Temple", "country": "United States", "state": "Texas", "county": "Harris", "city": "Klein", "latitude": 29.999729, "longitude": -95.533038, "dateDedicated": "2000-08-26T00:00:00Z", "templeStatusId": 1}, {"slug": "houston-texas-south", "name": "Houston Texas South Temple", "country": "United States", "state": "Texas", "county": null, "city": "Houston", "latitude": null, "longitude": null, "dateDedicated": null, "templeStatusId": 4}, {"slug": "huancayo-peru", "name": "Huancayo Peru Temple", "country": "Peru", "state": null, "county": null, "city": "Huancayo", "latitude": null, "longitude": null, "dateDedicated": null, "templeStatusId": 4}, {"slug": "huehuetenango-guatemala", "name": "Huehuetenango Guatemala Temple", "country": "Guatemala", "state": null, "county": null, "city": "Huehuetenango", "latitude": 15.32618492, "longitude": -91.48993, "dateDedicated": null, "templeStatusId": 4}, {"slug": "huntsville-alabama", "name": "Huntsville Alabama Temple", "country": "United States", "state": "Alabama", "county": "Madison", "city": "Madison", "latitude": 34.72763683, "longitude": -86.782548, "dateDedicated": null, "templeStatusId": 4}, {"slug": "idaho-falls-idaho", "name": "Idaho Falls Idaho Temple", "country": "United States", "state": "Idaho", "county": "Bonneville", "city": "Idaho Falls", "latitude": 43.499819, "longitude": -112.0415, "dateDedicated": "1945-09-23T00:00:00Z", "templeStatusId": 1}, {"slug": "iloilo-philippines", "name": "Iloilo Philippines Temple", "country": "Philippines", "state": null, "county": null, "city": "Iloilo", "latitude": null, "longitude": null, "dateDedicated": null, "templeStatusId": 4}, {"slug": "indianapolis-indiana", "name": "Indianapolis Indiana Temple", "country": "United States", "state": "Indiana", "county": "Hamilton", "city": "Carmel", "latitude": 39.955588, "longitude": -86.165741, "dateDedicated": "2015-08-23T00:00:00Z", "templeStatusId": 1}, {"slug": "iquitos-peru", "name": "Iquitos Peru Temple", "country": "Peru", "state": "Maynas", "county": null, "city": "Iquitos", "latitude": -3.76081711, "longitude": -73.26756, "dateDedicated": null, "templeStatusId": 4}, {"slug": "jacksonville-florida", "name": "Jacksonville Florida Temple", "country": "United States", "state": "Florida", "county": "Duval", "city": "Jacksonville", "latitude": 30.16175005, "longitude": -81.6235071, "dateDedicated": null, "templeStatusId": 4}, {"slug": "jakarta-indonesia", "name": "Jakarta Indonesia Temple", "country": "Indonesia", "state": null, "county": null, "city": "Jakarta", "latitude": -6.24105589, "longitude": 106.83779, "dateDedicated": null, "templeStatusId": 4}, {"slug": "joao-pessoa-brazil", "name": "Jo\u00e3o Pessoa Brazil Temple", "country": "Brazil", "state": "Para\u00edba", "county": null, "city": "Jo\u00e3o Pessoa", "latitude": -7.1242103, "longitude": -34.829102, "dateDedicated": null, "templeStatusId": 4}, {"slug": "johannesburg-south-africa", "name": "Johannesburg South Africa Temple", "country": "South Africa", "state": null, "county": null, "city": "Johannesburg", "latitude": -26.178051, "longitude": 28.039195, "dateDedicated": "1985-08-24T00:00:00Z", "templeStatusId": 1}, {"slug": "jordan-river-utah", "name": "Jordan River Utah Temple", "country": "United States", "state": "Utah", "county": "Salt Lake", "city": "South Jordan", "latitude": 40.566354, "longitude": -111.931417, "dateDedicated": "1981-11-16T00:00:00Z", "templeStatusId": 1}, {"slug": "juchitan-de-zaragoza-mexico", "name": "Juchit\u00e1n de Zaragoza Mexico Temple", "country": "Mexico", "state": null, "county": null, "city": "Juchit\u00e1n de Zaragoza", "latitude": null, "longitude": null, "dateDedicated": null, "templeStatusId": 4}, {"slug": "kahului-hawaii", "name": "Kahului Hawaii Temple", "country": "United States", "state": "Hawaii", "county": "Maui", "city": "Kahului", "latitude": null, "longitude": null, "dateDedicated": null, "templeStatusId": 4}, {"slug": "kampala-uganda", "name": "Kampala Uganda Temple", "country": "Uganda", "state": null, "county": null, "city": "Kampala", "latitude": null, "longitude": null, "dateDedicated": null, "templeStatusId": 4}, {"slug": "kananga-democratic-republic-of-the-congo", "name": "Kananga Democratic Republic of the Congo Temple", "country": "Democratic Republic of the Congo", "state": "Kasa\u00ef-Central", "county": null, "city": "Kananga", "latitude": -5.8951076, "longitude": 22.42968712, "dateDedicated": null, "templeStatusId": 4}, {"slug": "kansas-city-missouri", "name": "Kansas City Missouri Temple", "country": "United States", "state": "Missouri", "county": "Clay", "city": "Kansas City", "latitude": 39.220473, "longitude": -94.501331, "dateDedicated": "2012-05-06T00:00:00Z", "templeStatusId": 1}, {"slug": "kaohsiung-taiwan", "name": "Kaohsiung Taiwan Temple", "country": "Taiwan", "state": null, "county": null, "city": "Kaohsiung", "latitude": 22.6507433, "longitude": 120.3455124, "dateDedicated": null, "templeStatusId": 3}, {"slug": "kinshasa-democratic-republic-of-the-congo", "name": "Kinshasa Democratic Republic of the Congo Temple", "country": "Democratic Republic of the Congo", "state": null, "county": null, "city": "Kinshasa", "latitude": -4.327478, "longitude": 15.27371, "dateDedicated": "2019-04-14T00:00:00Z", "templeStatusId": 1}, {"slug": "kirtland", "name": "Kirtland Temple", "country": "United States", "state": "Ohio", "county": "Lake", "city": "Kirtland", "latitude": 41.625278, "longitude": -81.362222, "dateDedicated": "1836-03-27T00:00:00Z", "templeStatusId": 5}, {"slug": "knoxville-tennessee", "name": "Knoxville Tennessee Temple", "country": "United States", "state": "Tennessee", "county": "Knox", "city": "Farragut", "latitude": 35.86456549, "longitude": -84.2182371, "dateDedicated": null, "templeStatusId": 3}, {"slug": "kona-hawaii", "name": "Kona Hawaii Temple", "country": "United States", "state": "Hawaii", "county": "Hawaii", "city": "Kailua Kona", "latitude": 19.641614, "longitude": -155.985524, "dateDedicated": "2000-01-23T00:00:00Z", "templeStatusId": 2}, {"slug": "kumasi-ghana", "name": "Kumasi Ghana Temple", "country": "Ghana", "state": null, "county": null, "city": "Kumasi", "latitude": 6.70235776, "longitude": -1.64114052, "dateDedicated": null, "templeStatusId": 4}, {"slug": "kyiv-ukraine", "name": "Kyiv Ukraine Temple", "country": "Ukraine", "state": "Kyivs'ka Oblast", "county": null, "city": "Kyevo-Sviatoshyns'ky Rayon", "latitude": 50.404517, "longitude": 30.395565, "dateDedicated": "2010-08-29T00:00:00Z", "templeStatusId": 1}, {"slug": "la-paz-bolivia", "name": "La Paz Bolivia Temple", "country": "Bolivia", "state": null, "county": null, "city": "La Paz", "latitude": -16.54371222, "longitude": -68.089215, "dateDedicated": null, "templeStatusId": 4}, {"slug": "lagos-nigeria", "name": "Lagos Nigeria Temple", "country": "Nigeria", "state": null, "county": null, "city": "Lagos", "latitude": 6.44490729, "longitude": 3.43138695, "dateDedicated": null, "templeStatusId": 3}, {"slug": "laie-hawaii", "name": "Laie Hawaii Temple", "country": "United States", "state": "Hawaii", "county": "Honolulu", "city": "Laie", "latitude": 21.647207, "longitude": -157.930658, "dateDedicated": "1919-11-27T00:00:00Z", "templeStatusId": 1}, {"slug": "laoag-philippines", "name": "Laoag Philippines Temple", "country": "Philippines", "state": null, "county": null, "city": "Laoag", "latitude": null, "longitude": null, "dateDedicated": null, "templeStatusId": 4}, {"slug": "las-vegas-nevada", "name": "Las Vegas Nevada Temple", "country": "United States", "state": "Nevada", "county": "Clark", "city": "Las Vegas", "latitude": 36.174597, "longitude": -115.020052, "dateDedicated": "1989-12-16T00:00:00Z", "templeStatusId": 1}, {"slug": "layton-utah", "name": "Layton Utah Temple", "country": "United States", "state": "Utah", "county": "Davis", "city": "Layton", "latitude": 41.061699, "longitude": -111.938379, "dateDedicated": "2024-06-16T00:00:00Z", "templeStatusId": 1}, {"slug": "lehi-utah", "name": "Lehi Utah Temple", "country": "United States", "state": "Utah", "county": "Utah", "city": "Lehi", "latitude": 40.43932614, "longitude": -111.85131, "dateDedicated": null, "templeStatusId": 4}, {"slug": "lethbridge-alberta", "name": "Lethbridge Alberta Temple", "country": "Canada", "state": "Alberta", "county": null, "city": "Lethbridge", "latitude": 49.67041434, "longitude": -112.91089, "dateDedicated": null, "templeStatusId": 3}, {"slug": "lima-peru", "name": "Lima Peru Temple", "country": "Peru", "state": null, "county": null, "city": "Lima", "latitude": -12.069713, "longitude": -76.948897, "dateDedicated": "1986-01-10T00:00:00Z", "templeStatusId": 1}, {"slug": "lima-peru-los-olivos", "name": "Lima Peru Los Olivos Temple", "country": "Peru", "state": null, "county": null, "city": "Lima", "latitude": -12.019992, "longitude": -77.054237, "dateDedicated": "2024-01-14T00:00:00Z", "templeStatusId": 1}, {"slug": "lindon-utah", "name": "Lindon Utah Temple", "country": "United States", "state": "Utah", "county": "Utah", "city": "Lindon", "latitude": 40.33730438, "longitude": -111.6953838, "dateDedicated": null, "templeStatusId": 3}, {"slug": "lisbon-portugal", "name": "Lisbon Portugal Temple", "country": "Portugal", "state": null, "county": null, "city": "Lisboa", "latitude": 38.779187, "longitude": -9.098784, "dateDedicated": "2019-09-15T00:00:00Z", "templeStatusId": 1}, {"slug": "liverpool-australia", "name": "Liverpool Australia Temple", "country": "Australia", "state": null, "county": null, "city": "Liverpool", "latitude": null, "longitude": null, "dateDedicated": null, "templeStatusId": 4}, {"slug": "logan-utah", "name": "Logan Utah Temple", "country": "United States", "state": "Utah", "county": "Cache", "city": "Logan", "latitude": 41.734161, "longitude": -111.827943, "dateDedicated": "1884-05-17T00:00:00Z", "templeStatusId": 1}, {"slug": "london-england", "name": "London England Temple", "country": "United Kingdom", "state": "England", "county": null, "city": "Surrey", "latitude": 51.162566, "longitude": -0.052181, "dateDedicated": "1958-09-07T00:00:00Z", "templeStatusId": 1}, {"slug": "londrina-brazil", "name": "Londrina Brazil Temple", "country": "Brazil", "state": "Paran\u00e1", "county": null, "city": "Londrina", "latitude": -23.34460281, "longitude": -51.160186, "dateDedicated": null, "templeStatusId": 3}, {"slug": "lone-mountain-nevada", "name": "Lone Mountain Nevada Temple", "country": "United States", "state": "Nevada", "county": "Clark", "city": "Las Vegas", "latitude": 36.23619575, "longitude": -115.304183, "dateDedicated": null, "templeStatusId": 3}, {"slug": "los-angeles-california", "name": "Los Angeles California Temple", "country": "United States", "state": "California", "county": "Los Angeles", "city": "Los Angeles", "latitude": 34.052801, "longitude": -118.433909, "dateDedicated": "1956-03-11T00:00:00Z", "templeStatusId": 1}, {"slug": "louisville-kentucky", "name": "Louisville Kentucky Temple", "country": "United States", "state": "Kentucky", "county": "Oldham", "city": "Crestwood", "latitude": 38.32112, "longitude": -85.488843, "dateDedicated": "2000-03-19T00:00:00Z", "templeStatusId": 1}, {"slug": "luanda-angola", "name": "Luanda Angola Temple", "country": "Angola", "state": null, "county": null, "city": "Luanda", "latitude": null, "longitude": null, "dateDedicated": null, "templeStatusId": 4}, {"slug": "lubbock-texas", "name": "Lubbock Texas Temple", "country": "United States", "state": "Texas", "county": "Lubbock", "city": "Lubbock", "latitude": 33.528961, "longitude": -101.941413, "dateDedicated": "2002-04-21T00:00:00Z", "templeStatusId": 1}, {"slug": "lubumbashi-democratic-republic-of-the-congo", "name": "Lubumbashi Democratic Republic of the Congo Temple", "country": "Democratic Republic of the Congo", "state": null, "county": null, "city": "Lubumbashi", "latitude": -11.64889247, "longitude": 27.468461, "dateDedicated": null, "templeStatusId": 3}, {"slug": "maceio-brazil", "name": "Macei\u00f3 Brazil Temple", "country": "Brazil", "state": "Alagoas", "county": null, "city": "Macei\u00f3", "latitude": -9.60334597, "longitude": -35.744046, "dateDedicated": null, "templeStatusId": 4}, {"slug": "madrid-spain", "name": "Madrid Spain Temple", "country": "Spain", "state": null, "county": null, "city": "Madrid", "latitude": 40.40009, "longitude": -3.63158, "dateDedicated": "1999-03-19T00:00:00Z", "templeStatusId": 1}, {"slug": "managua-nicaragua", "name": "Managua Nicaragua Temple", "country": "Nicaragua", "state": null, "county": null, "city": "Managua", "latitude": 12.09094774, "longitude": -86.234252, "dateDedicated": null, "templeStatusId": 3}, {"slug": "manaus-brazil", "name": "Manaus Brazil Temple", "country": "Brazil", "state": "Amazonas", "county": null, "city": "Manaus", "latitude": -3.073907, "longitude": -60.089331, "dateDedicated": "2012-06-10T00:00:00Z", "templeStatusId": 1}, {"slug": "manhattan-new-york", "name": "Manhattan New York Temple", "country": "United States", "state": "New York", "county": "New York", "city": "New York", "latitude": 40.773112, "longitude": -73.981622, "dateDedicated": "2004-06-13T00:00:00Z", "templeStatusId": 2}, {"slug": "manila-philippines", "name": "Manila Philippines Temple", "country": "Philippines", "state": "Metro Manila", "county": null, "city": "Quezon City", "latitude": 14.601356, "longitude": 121.069818, "dateDedicated": "1984-09-25T00:00:00Z", "templeStatusId": 1}, {"slug": "manti-utah", "name": "Manti Utah Temple", "country": "United States", "state": "Utah", "county": "Sanpete", "city": "Manti", "latitude": 39.272906, "longitude": -111.63376, "dateDedicated": "1888-05-21T00:00:00Z", "templeStatusId": 1}, {"slug": "maputo-mozambique", "name": "Maputo Mozambique Temple", "country": "Mozambique", "state": null, "county": null, "city": "Maputo", "latitude": null, "longitude": null, "dateDedicated": null, "templeStatusId": 4}, {"slug": "maracaibo-venezuela", "name": "Maracaibo Venezuela Temple", "country": "Venezuela", "state": null, "county": null, "city": "Maracaibo", "latitude": 10.6693532, "longitude": -71.604347, "dateDedicated": null, "templeStatusId": 4}, {"slug": "mbuji-mayi-democratic-republic-of-the-congo", "name": "Mbuji-Mayi Democratic Republic of the Congo Temple", "country": "Democratic Republic of the Congo", "state": null, "county": null, "city": "Mbuji-Mayi", "latitude": null, "longitude": null, "dateDedicated": null, "templeStatusId": 4}, {"slug": "mcallen-texas", "name": "McAllen Texas Temple", "country": "United States", "state": "Texas", "county": "Hidalgo", "city": "McAllen", "latitude": 26.268118, "longitude": -98.211125, "dateDedicated": "2023-10-08T00:00:00Z", "templeStatusId": 1}, {"slug": "medellin-colombia", "name": "Medell\u00edn Colombia Temple", "country": "Colombia", "state": null, "county": null, "city": "Medell\u00edn", "latitude": null, "longitude": null, "dateDedicated": null, "templeStatusId": 4}, {"slug": "medford-oregon", "name": "Medford Oregon Temple", "country": "United States", "state": "Oregon", "county": "Jackson", "city": "Central Point", "latitude": 42.373324, "longitude": -122.932746, "dateDedicated": "2000-04-16T00:00:00Z", "templeStatusId": 1}, {"slug": "melbourne-australia", "name": "Melbourne Australia Temple", "country": "Australia", "state": "Victoria", "county": null, "city": "Wantirna South", "latitude": -37.868774, "longitude": 145.212622, "dateDedicated": "2000-06-16T00:00:00Z", "templeStatusId": 1}, {"slug": "memphis-tennessee", "name": "Memphis Tennessee Temple", "country": "United States", "state": "Tennessee", "county": "Shelby", "city": "Bartlett", "latitude": 35.240752, "longitude": -89.839334, "dateDedicated": "2000-04-23T00:00:00Z", "templeStatusId": 1}, {"slug": "mendoza-argentina", "name": "Mendoza Argentina Temple", "country": "Argentina", "state": "Mendoza", "county": null, "city": "Ciudad de Mendoza", "latitude": -32.863757, "longitude": -68.881592, "dateDedicated": "2024-09-22T00:00:00Z", "templeStatusId": 1}, {"slug": "merida-mexico", "name": "M\u00e9rida Mexico Temple", "country": "Mexico", "state": "Yucatan", "county": null, "city": "M\u00e9rida", "latitude": 20.965784, "longitude": -89.631061, "dateDedicated": "2000-07-08T00:00:00Z", "templeStatusId": 1}, {"slug": "meridian-idaho", "name": "Meridian Idaho Temple", "country": "United States", "state": "Idaho", "county": "Ada", "city": "Meridian", "latitude": 43.671022, "longitude": -116.415115, "dateDedicated": "2017-11-19T00:00:00Z", "templeStatusId": 1}, {"slug": "mesa-arizona", "name": "Mesa Arizona Temple", "country": "United States", "state": "Arizona", "county": "Maricopa", "city": "Mesa", "latitude": 33.412876, "longitude": -111.819571, "dateDedicated": "1927-10-23T00:00:00Z", "templeStatusId": 1}, {"slug": "mexico-city-benemerito-mexico", "name": "Mexico City Benem\u00e9rito Mexico Temple", "country": "Mexico", "state": null, "county": null, "city": "Mexico City", "latitude": 19.5348353, "longitude": -99.150919, "dateDedicated": null, "templeStatusId": 4}, {"slug": "mexico-city-mexico", "name": "Mexico City Mexico Temple", "country": "Mexico", "state": "Distrito Federal", "county": null, "city": "M\u00e9xico", "latitude": 19.465905, "longitude": -99.086754, "dateDedicated": "1983-12-02T00:00:00Z", "templeStatusId": 1}, {"slug": "milan-italy", "name": "Milan Italy Temple", "country": "Italy", "state": null, "county": null, "city": "Milan", "latitude": null, "longitude": null, "dateDedicated": null, "templeStatusId": 4}, {"slug": "milwaukee-wisconsin", "name": "Milwaukee Wisconsin Temple", "country": "United States", "state": "Wisconsin", "county": "Milwaukee", "city": "Milwaukee", "latitude": null, "longitude": null, "dateDedicated": null, "templeStatusId": 4}, {"slug": "miraflores-guatemala-city-guatemala", "name": "Miraflores Guatemala City Guatemala Temple", "country": "Guatemala", "state": null, "county": null, "city": "Guatemala City", "latitude": 14.60722327, "longitude": -90.544983, "dateDedicated": null, "templeStatusId": 3}, {"slug": "missoula-montana", "name": "Missoula Montana Temple", "country": "United States", "state": "Montana", "county": "Missoula", "city": "Missoula", "latitude": 46.81900794, "longitude": -114.067477, "dateDedicated": null, "templeStatusId": 4}, {"slug": "modesto-california", "name": "Modesto California Temple", "country": "United States", "state": "California", "county": "Stanislaus", "city": "Modesto", "latitude": 37.70279243, "longitude": -121.04679, "dateDedicated": null, "templeStatusId": 3}, {"slug": "monrovia-liberia", "name": "Monrovia Liberia Temple", "country": "Liberia", "state": null, "county": null, "city": "Monrovia", "latitude": null, "longitude": null, "dateDedicated": null, "templeStatusId": 4}, {"slug": "monterrey-mexico", "name": "Monterrey Mexico Temple", "country": "Mexico", "state": "Nuevo Leon", "county": null, "city": "Monterrey", "latitude": 25.589364, "longitude": -100.259975, "dateDedicated": "2002-04-28T00:00:00Z", "templeStatusId": 1}, {"slug": "montevideo-uruguay", "name": "Montevideo Uruguay Temple", "country": "Uruguay", "state": null, "county": null, "city": "Montevideo", "latitude": -34.888444, "longitude": -56.074088, "dateDedicated": "2001-03-18T00:00:00Z", "templeStatusId": 1}, {"slug": "monticello-utah", "name": "Monticello Utah Temple", "country": "United States", "state": "Utah", "county": "San Juan", "city": "Monticello", "latitude": 37.877917, "longitude": -109.347066, "dateDedicated": "1998-07-26T00:00:00Z", "templeStatusId": 1}, {"slug": "montpelier-idaho", "name": "Montpelier Idaho Temple", "country": "United States", "state": "Idaho", "county": "Bear Lake", "city": "Montpelier", "latitude": 42.31819185, "longitude": -111.30165, "dateDedicated": null, "templeStatusId": 3}, {"slug": "montreal-quebec", "name": "Montreal Quebec Temple", "country": "Canada", "state": "Quebec", "county": null, "city": "Longueuil", "latitude": 45.563335, "longitude": -73.490616, "dateDedicated": "2000-06-04T00:00:00Z", "templeStatusId": 1}, {"slug": "moses-lake-washington", "name": "Moses Lake Washington Temple", "country": "United States", "state": "Washington", "county": "Grant", "city": "Moses Lake", "latitude": 47.103441, "longitude": -119.272362, "dateDedicated": "2023-09-17T00:00:00Z", "templeStatusId": 1}, {"slug": "mount-timpanogos-utah", "name": "Mount Timpanogos Utah Temple", "country": "United States", "state": "Utah", "county": "Utah", "city": "American Fork", "latitude": 40.393166, "longitude": -111.770509, "dateDedicated": "1996-10-13T00:00:00Z", "templeStatusId": 1}, {"slug": "naga-philippines", "name": "Naga Philippines Temple", "country": "Philippines", "state": null, "county": null, "city": "Naga", "latitude": null, "longitude": null, "dateDedicated": null, "templeStatusId": 4}, {"slug": "nairobi-kenya", "name": "Nairobi Kenya Temple", "country": "Kenya", "state": null, "county": null, "city": "Nairobi", "latitude": -1.26529552, "longitude": 36.739816, "dateDedicated": "2025-05-18T00:00:00Z", "templeStatusId": 1}, {"slug": "nashville-tennessee", "name": "Nashville Tennessee Temple", "country": "United States", "state": "Tennessee", "county": "Williamson", "city": "Franklin", "latitude": 35.948839, "longitude": -86.860329, "dateDedicated": "2000-05-21T00:00:00Z", "templeStatusId": 1}, {"slug": "natal-brazil", "name": "Natal Brazil Temple", "country": "Brazil", "state": "Rio Grande do Norte", "county": null, "city": "Parnamirim", "latitude": -5.87785295, "longitude": -35.222713, "dateDedicated": null, "templeStatusId": 3}, {"slug": "nauvoo-illinois", "name": "Nauvoo Illinois Temple", "country": "United States", "state": "Illinois", "county": "Hancock", "city": "Nauvoo", "latitude": 40.55048, "longitude": -91.384378, "dateDedicated": "2002-06-27T00:00:00Z", "templeStatusId": 1}, {"slug": "neiafu-tonga", "name": "Neiafu Tonga Temple", "country": "Tonga", "state": "Vava'u", "county": null, "city": "Neiafu", "latitude": -18.64422855, "longitude": -173.9776, "dateDedicated": null, "templeStatusId": 3}, {"slug": "newport-beach-california", "name": "Newport Beach California Temple", "country": "United States", "state": "California", "county": "Orange", "city": "Newport Beach", "latitude": 33.629627, "longitude": -117.848766, "dateDedicated": "2005-08-28T00:00:00Z", "templeStatusId": 1}, {"slug": "norfolk-virginia", "name": "Norfolk Virginia Temple", "country": "United States", "state": "Virginia", "county": null, "city": "Norfolk", "latitude": null, "longitude": null, "dateDedicated": null, "templeStatusId": 4}, {"slug": "noumea-new-caledonia", "name": "Noum\u00e9a New Caledonia Temple", "country": "New Caledonia", "state": null, "county": null, "city": "Noum\u00e9a", "latitude": null, "longitude": null, "dateDedicated": null, "templeStatusId": 4}, {"slug": "nuku-alofa-tonga", "name": "Nuku'alofa Tonga Temple", "country": "Tonga", "state": null, "county": null, "city": "Tongatapu", "latitude": -21.162561, "longitude": -175.27232, "dateDedicated": "1983-08-09T00:00:00Z", "templeStatusId": 1}, {"slug": "oakland-california", "name": "Oakland California Temple", "country": "United States", "state": "California", "county": "Alameda", "city": "Oakland", "latitude": 37.808027, "longitude": -122.19912, "dateDedicated": "1964-11-17T00:00:00Z", "templeStatusId": 1}, {"slug": "oaxaca-mexico", "name": "Oaxaca Mexico Temple", "country": "Mexico", "state": "Oaxaca", "county": null, "city": "Oaxaca", "latitude": 17.041554, "longitude": -96.713503, "dateDedicated": "2000-03-11T00:00:00Z", "templeStatusId": 1}, {"slug": "ogden-utah", "name": "Ogden Utah Temple", "country": "United States", "state": "Utah", "county": "Weber", "city": "Ogden", "latitude": 41.227786, "longitude": -111.971506, "dateDedicated": "1972-01-18T00:00:00Z", "templeStatusId": 1}, {"slug": "okinawa-japan", "name": "Okinawa Japan Temple", "country": "Japan", "state": "Okinawa", "county": "Okinawa-ken", "city": "Okinawa-shi", "latitude": 26.358285, "longitude": 127.801718, "dateDedicated": "2023-11-12T00:00:00Z", "templeStatusId": 1}, {"slug": "oklahoma-city-oklahoma", "name": "Oklahoma City Oklahoma Temple", "country": "United States", "state": "Oklahoma", "county": "Canadian", "city": "Yukon", "latitude": 35.591846, "longitude": -97.7267, "dateDedicated": "2000-07-30T00:00:00Z", "templeStatusId": 1}, {"slug": "oquirrh-mountain-utah", "name": "Oquirrh Mountain Utah Temple", "country": "United States", "state": "Utah", "county": "Salt Lake", "city": "South Jordan", "latitude": 40.551145, "longitude": -111.98751, "dateDedicated": "2009-08-21T00:00:00Z", "templeStatusId": 1}, {"slug": "orem-utah", "name": "Orem Utah Temple", "country": "United States", "state": "Utah", "county": "Utah", "city": "Orem", "latitude": 40.270755, "longitude": -111.720916, "dateDedicated": "2024-01-21T00:00:00Z", "templeStatusId": 1}, {"slug": "orlando-florida", "name": "Orlando Florida Temple", "country": "United States", "state": "Florida", "county": "Orange", "city": "Windermere", "latitude": 28.507348, "longitude": -81.509578, "dateDedicated": "1994-10-09T00:00:00Z", "templeStatusId": 2}, {"slug": "osaka-japan", "name": "Osaka Japan Temple", "country": "Japan", "state": "Osaka", "county": null, "city": "Hirakata City", "latitude": 34.81677777, "longitude": 135.715121, "dateDedicated": null, "templeStatusId": 4}, {"slug": "oslo-norway", "name": "Oslo Norway Temple", "country": "Norway", "state": null, "county": null, "city": "Hvalstad", "latitude": 59.85795039, "longitude": 10.48033456, "dateDedicated": null, "templeStatusId": 4}, {"slug": "pachuca-mexico", "name": "Pachuca Mexico Temple", "country": "Mexico", "state": "Hidalgo", "county": null, "city": "Pachuca", "latitude": 20.10227408, "longitude": -98.762569, "dateDedicated": null, "templeStatusId": 4}, {"slug": "pago-pago-american-samoa", "name": "Pago Pago American Samoa Temple", "country": "American Samoa", "state": "Western District", "county": null, "city": "Tafuna", "latitude": -14.333959, "longitude": -170.73199, "dateDedicated": null, "templeStatusId": 3}, {"slug": "palmyra-new-york", "name": "Palmyra New York Temple", "country": "United States", "state": "New York", "county": "Wayne", "city": "Palmyra", "latitude": 43.039148, "longitude": -77.237063, "dateDedicated": "2000-04-06T00:00:00Z", "templeStatusId": 1}, {"slug": "panama-city-panama", "name": "Panama City Panama Temple", "country": "Panama", "state": "Provincia de Panam\u00e1", "county": null, "city": "Ancon", "latitude": 8.99146, "longitude": -79.57048, "dateDedicated": "2008-08-10T00:00:00Z", "templeStatusId": 1}, {"slug": "papeete-tahiti", "name": "Papeete Tahiti Temple", "country": "French Polynesia", "state": "Tahiti", "county": null, "city": "Commune de Papeete", "latitude": -17.536618, "longitude": -149.556019, "dateDedicated": "1983-10-27T00:00:00Z", "templeStatusId": 1}, {"slug": "paris-france", "name": "Paris France Temple", "country": "France", "state": null, "county": null, "city": "Le Chesnay", "latitude": 48.817892, "longitude": 2.123171, "dateDedicated": "2017-05-21T00:00:00Z", "templeStatusId": 1}, {"slug": "payson-utah", "name": "Payson Utah Temple", "country": "United States", "state": "Utah", "county": "Utah", "city": "Payson", "latitude": 40.019258, "longitude": -111.749175, "dateDedicated": "2015-06-07T00:00:00Z", "templeStatusId": 1}, {"slug": "perth-australia", "name": "Perth Australia Temple", "country": "Australia", "state": "Western Australia", "county": null, "city": "Yokine", "latitude": -31.906905, "longitude": 115.869834, "dateDedicated": "2001-05-20T00:00:00Z", "templeStatusId": 1}, {"slug": "philadelphia-pennsylvania", "name": "Philadelphia Pennsylvania Temple", "country": "United States", "state": "Pennsylvania", "county": "Philadelphia", "city": "Philadelphia", "latitude": 39.959174, "longitude": -75.168072, "dateDedicated": "2016-09-18T00:00:00Z", "templeStatusId": 1}, {"slug": "phnom-penh-cambodia", "name": "Phnom Penh Cambodia Temple", "country": "Cambodia", "state": null, "county": null, "city": "Phnom Penh", "latitude": 11.569891, "longitude": 104.895707, "dateDedicated": null, "templeStatusId": 3}, {"slug": "phoenix-arizona", "name": "Phoenix Arizona Temple", "country": "United States", "state": "Arizona", "county": "Maricopa", "city": "Phoenix", "latitude": 33.698555, "longitude": -112.172329, "dateDedicated": "2014-11-16T00:00:00Z", "templeStatusId": 1}, {"slug": "pittsburgh-pennsylvania", "name": "Pittsburgh Pennsylvania Temple", "country": "United States", "state": "Pennsylvania", "county": "Butler", "city": "Cranberry Township", "latitude": 40.69404827, "longitude": -80.140918, "dateDedicated": "2024-09-15T00:00:00Z", "templeStatusId": 1}, {"slug": "piura-peru", "name": "Piura Peru Temple", "country": "Peru", "state": null, "county": null, "city": "Piura", "latitude": null, "longitude": null, "dateDedicated": null, "templeStatusId": 4}, {"slug": "pocatello-idaho", "name": "Pocatello Idaho Temple", "country": "United States", "state": "Idaho", "county": "Bannock", "city": "Pocatello", "latitude": 42.915259, "longitude": -112.406374, "dateDedicated": "2021-11-07T00:00:00Z", "templeStatusId": 1}, {"slug": "port-au-prince-haiti", "name": "Port-au-Prince Haiti Temple", "country": "Haiti", "state": null, "county": null, "city": "Petion-Ville", "latitude": 18.529017, "longitude": -72.268143, "dateDedicated": "2019-09-01T00:00:00Z", "templeStatusId": 1}, {"slug": "port-moresby-papua-new-guinea", "name": "Port Moresby Papua New Guinea Temple", "country": "Papua New Guinea", "state": null, "county": null, "city": "Port Moresby", "latitude": -9.477474, "longitude": 147.176546, "dateDedicated": null, "templeStatusId": 3}, {"slug": "port-vila-vanuatu", "name": "Port Vila Vanuatu Temple", "country": "Vanuatu", "state": null, "county": null, "city": "Port Vila", "latitude": -17.70379129, "longitude": 168.30421, "dateDedicated": null, "templeStatusId": 3}, {"slug": "portland-oregon", "name": "Portland Oregon Temple", "country": "United States", "state": "Oregon", "county": "Clackamas", "city": "Lake Oswego", "latitude": 45.425345, "longitude": -122.742224, "dateDedicated": "1989-08-19T00:00:00Z", "templeStatusId": 1}, {"slug": "porto-alegre-brazil", "name": "Porto Alegre Brazil Temple", "country": "Brazil", "state": "Rio Grande do Sul", "county": null, "city": "Porto Alegre", "latitude": -30.034047, "longitude": -51.157868, "dateDedicated": "2000-12-17T00:00:00Z", "templeStatusId": 1}, {"slug": "porto-portugal", "name": "Porto Portugal Temple", "country": "Portugal", "state": null, "county": null, "city": "Porto", "latitude": null, "longitude": null, "dateDedicated": null, "templeStatusId": 4}, {"slug": "praia-cape-verde", "name": "Praia Cape Verde Temple", "country": "Cape Verde", "state": "Santiago", "county": null, "city": "Praia", "latitude": 14.918789, "longitude": -23.511157, "dateDedicated": "2022-06-19T00:00:00Z", "templeStatusId": 1}, {"slug": "preston-england", "name": "Preston England Temple", "country": "United Kingdom", "state": "England", "county": null, "city": "Lancashire", "latitude": 53.672476, "longitude": -2.631275, "dateDedicated": "1998-06-07T00:00:00Z", "templeStatusId": 1}, {"slug": "price-utah", "name": "Price Utah Temple", "country": "United States", "state": "Utah", "county": "Carbon", "city": "Price", "latitude": null, "longitude": null, "dateDedicated": null, "templeStatusId": 4}, {"slug": "provo-city-center", "name": "Provo City Center Temple", "country": "United States", "state": "Utah", "county": "Utah", "city": "Provo", "latitude": 40.232667, "longitude": -111.659299, "dateDedicated": "2016-03-20T00:00:00Z", "templeStatusId": 2}, {"slug": "provo-utah-rock-canyon", "name": "Provo Utah Rock Canyon Temple", "country": "United States", "state": "Utah", "county": "Utah", "city": "Provo", "latitude": 40.26347161, "longitude": -111.6405, "dateDedicated": null, "templeStatusId": 1}, {"slug": "puebla-mexico", "name": "Puebla Mexico Temple", "country": "Mexico", "state": "Puebla", "county": null, "city": "Puebla", "latitude": 19.085418, "longitude": -98.235514, "dateDedicated": "2024-05-19T00:00:00Z", "templeStatusId": 1}, {"slug": "puerto-montt-chile", "name": "Puerto Montt Chile Temple", "country": "Chile", "state": null, "county": null, "city": "Puerto Montt", "latitude": null, "longitude": null, "dateDedicated": null, "templeStatusId": 4}, {"slug": "queen-creek-arizona", "name": "Queen Creek Arizona Temple", "country": "United States", "state": "Arizona", "county": "Pinal", "city": "Queen Creek", "latitude": null, "longitude": null, "dateDedicated": null, "templeStatusId": 4}, {"slug": "queretaro-mexico", "name": "Quer\u00e9taro Mexico Temple", "country": "Mexico", "state": "Quer\u00e9taro", "county": null, "city": "Quer\u00e9taro", "latitude": 20.61335562, "longitude": -100.410611, "dateDedicated": null, "templeStatusId": 3}, {"slug": "quetzaltenango-guatemala", "name": "Quetzaltenango Guatemala Temple", "country": "Guatemala", "state": null, "county": null, "city": "Quetzaltenango", "latitude": 14.846493, "longitude": -91.542517, "dateDedicated": "2011-12-11T00:00:00Z", "templeStatusId": 1}, {"slug": "quito-ecuador", "name": "Quito Ecuador Temple", "country": "Ecuador", "state": "Quito", "county": null, "city": "Cumbay\u00e1", "latitude": -0.213711, "longitude": -78.441018, "dateDedicated": "2022-11-20T00:00:00Z", "templeStatusId": 1}, {"slug": "raleigh-north-carolina", "name": "Raleigh North Carolina Temple", "country": "United States", "state": "North Carolina", "county": "Wake", "city": "Apex", "latitude": 35.732111, "longitude": -78.861542, "dateDedicated": "1999-12-18T00:00:00Z", "templeStatusId": 1}, {"slug": "rapid-city-south-dakota", "name": "Rapid City South Dakota Temple", "country": "United States", "state": "South Dakota", "county": "Pennington", "city": "Rapid City", "latitude": null, "longitude": null, "dateDedicated": null, "templeStatusId": 4}, {"slug": "recife-brazil", "name": "Recife Brazil Temple", "country": "Brazil", "state": "Pernambuco", "county": null, "city": "Recife", "latitude": -8.03639, "longitude": -34.911123, "dateDedicated": "2000-12-15T00:00:00Z", "templeStatusId": 1}, {"slug": "red-cliffs-utah", "name": "Red Cliffs Utah Temple", "country": "United States", "state": "Utah", "county": "Washington", "city": "St. George", "latitude": 37.082184, "longitude": -113.519741, "dateDedicated": "2024-03-24T00:00:00Z", "templeStatusId": 1}, {"slug": "redlands-california", "name": "Redlands California Temple", "country": "United States", "state": "California", "county": "San Bernardino", "city": "Redlands", "latitude": 34.049037, "longitude": -117.140579, "dateDedicated": "2003-09-14T00:00:00Z", "templeStatusId": 1}, {"slug": "regina-saskatchewan", "name": "Regina Saskatchewan Temple", "country": "Canada", "state": "Saskatchewan", "county": null, "city": "Regina", "latitude": 50.420981, "longitude": -104.54168, "dateDedicated": "1999-11-14T00:00:00Z", "templeStatusId": 1}, {"slug": "reno-nevada", "name": "Reno Nevada Temple", "country": "United States", "state": "Nevada", "county": "Washoe", "city": "Reno", "latitude": 39.534611, "longitude": -119.898913, "dateDedicated": "2000-04-23T00:00:00Z", "templeStatusId": 1}, {"slug": "retalhuleu-guatemala", "name": "Retalhuleu Guatemala Temple", "country": "Guatemala", "state": "Retalhuleu", "county": null, "city": "San Sebasti\u00e1n", "latitude": 14.55392838, "longitude": -91.6551607, "dateDedicated": null, "templeStatusId": 4}, {"slug": "rexburg-idaho", "name": "Rexburg Idaho Temple", "country": "United States", "state": "Idaho", "county": "Madison", "city": "Rexburg", "latitude": 43.810922, "longitude": -111.778979, "dateDedicated": "2008-02-10T00:00:00Z", "templeStatusId": 1}, {"slug": "reynosa-mexico", "name": "Reynosa Mexico Temple", "country": "Mexico", "state": "Tamaulipas", "county": null, "city": "Reynosa", "latitude": null, "longitude": null, "dateDedicated": null, "templeStatusId": 4}, {"slug": "ribeirao-preto-brazil", "name": "Ribeir\u00e3o Preto Brazil Temple", "country": "Brazil", "state": "S\u00e3o Paulo", "county": null, "city": "Ribeir\u00e3o Preto", "latitude": -21.2160709, "longitude": -47.80927, "dateDedicated": null, "templeStatusId": 3}, {"slug": "richmond-virginia", "name": "Richmond Virginia Temple", "country": "United States", "state": "Virginia", "county": "Henrico", "city": "Glen Allen", "latitude": 37.672884, "longitude": -77.535372, "dateDedicated": "2023-05-07T00:00:00Z", "templeStatusId": 1}, {"slug": "rio-de-janeiro-brazil", "name": "Rio de Janeiro Brazil Temple", "country": "Brazil", "state": "Rio de Janeiro", "county": null, "city": "Barra Da Tijuca - Rio De Janeiro", "latitude": -23.000894, "longitude": -43.399918, "dateDedicated": "2022-05-08T00:00:00Z", "templeStatusId": 1}, {"slug": "rivera-uruguay", "name": "Rivera Uruguay Temple", "country": "Uruguay", "state": null, "county": null, "city": "Rivera", "latitude": null, "longitude": null, "dateDedicated": null, "templeStatusId": 4}, {"slug": "roanoke-virginia", "name": "Roanoke Virginia Temple", "country": "United States", "state": "Virginia", "county": "Roanoke", "city": "Roanoke", "latitude": null, "longitude": null, "dateDedicated": null, "templeStatusId": 4}, {"slug": "rome-italy", "name": "Rome Italy Temple", "country": "Italy", "state": "RM", "county": null, "city": "Rome", "latitude": 41.970437, "longitude": 12.544764, "dateDedicated": "2019-03-10T00:00:00Z", "templeStatusId": 1}, {"slug": "rosario-argentina", "name": "Rosario Argentina Temple", "country": "Argentina", "state": null, "county": null, "city": "Rosario", "latitude": null, "longitude": null, "dateDedicated": null, "templeStatusId": 4}, {"slug": "russia", "name": "Russia Temple", "country": "Russia", "state": null, "county": null, "city": "Unknown", "latitude": null, "longitude": null, "dateDedicated": null, "templeStatusId": 4}, {"slug": "sacramento-california", "name": "Sacramento California Temple", "country": "United States", "state": "California", "county": "Sacramento", "city": "Rancho Cordova", "latitude": 38.635116, "longitude": -121.193925, "dateDedicated": "2006-09-03T00:00:00Z", "templeStatusId": 1}, {"slug": "salt-lake", "name": "Salt Lake Temple", "country": "United States", "state": "Utah", "county": "Salt Lake", "city": "Salt Lake City", "latitude": 40.770468, "longitude": -111.891958, "dateDedicated": "1893-04-06T00:00:00Z", "templeStatusId": 2}, {"slug": "salta-argentina", "name": "Salta Argentina Temple", "country": "Argentina", "state": "Salta", "county": null, "city": "Salta", "latitude": -24.837197, "longitude": -65.470001, "dateDedicated": "2024-06-16T00:00:00Z", "templeStatusId": 1}, {"slug": "salvador-brazil", "name": "Salvador Brazil Temple", "country": "Brazil", "state": "Bahia", "county": null, "city": "Salvador", "latitude": -12.929251, "longitude": -38.386386, "dateDedicated": "2024-10-20T00:00:00Z", "templeStatusId": 1}, {"slug": "san-antonio-texas", "name": "San Antonio Texas Temple", "country": "United States", "state": "Texas", "county": "Bexar", "city": "San Antonio", "latitude": 29.641481, "longitude": -98.488789, "dateDedicated": "2005-05-22T00:00:00Z", "templeStatusId": 1}, {"slug": "san-diego-california", "name": "San Diego California Temple", "country": "United States", "state": "California", "county": "San Diego", "city": "San Diego", "latitude": 32.866389, "longitude": -117.228769, "dateDedicated": "1993-04-25T00:00:00Z", "templeStatusId": 2}, {"slug": "san-jose-california", "name": "San Jose California Temple", "country": "United States", "state": "California", "county": "Santa Clara", "city": "Sunnyvale", "latitude": 37.35297371, "longitude": -122.04434, "dateDedicated": null, "templeStatusId": 4}, {"slug": "san-jose-costa-rica", "name": "San Jos\u00e9 Costa Rica Temple", "country": "Costa Rica", "state": "Heredia", "county": null, "city": "Bel\u00e9n", "latitude": 9.986418, "longitude": -84.184831, "dateDedicated": "2000-06-04T00:00:00Z", "templeStatusId": 1}, {"slug": "san-jose-del-monte-philippines", "name": "San Jose del Monte Philippines Temple", "country": "Philippines", "state": null, "county": null, "city": "San Jose del Monte", "latitude": null, "longitude": null, "dateDedicated": null, "templeStatusId": 4}, {"slug": "san-juan-puerto-rico", "name": "San Juan Puerto Rico Temple", "country": "Puerto Rico", "state": "PR", "county": null, "city": "San Juan", "latitude": 18.385623, "longitude": -66.029896, "dateDedicated": "2023-01-15T00:00:00Z", "templeStatusId": 1}, {"slug": "san-luis-potosi-mexico", "name": "San Luis Potos\u00ed Mexico Temple", "country": "Mexico", "state": "San Luis Potos\u00ed", "county": null, "city": "San Luis Potos\u00ed", "latitude": 22.15320582, "longitude": -101.01515, "dateDedicated": null, "templeStatusId": 3}, {"slug": "san-pedro-sula-honduras", "name": "San Pedro Sula Honduras Temple", "country": "Honduras", "state": "Cort\u00e9s", "county": null, "city": "San Pedro Sula", "latitude": 15.522544, "longitude": -88.036856, "dateDedicated": "2024-10-13T00:00:00Z", "templeStatusId": 1}, {"slug": "san-salvador-el-salvador", "name": "San Salvador El Salvador Temple", "country": "El Salvador", "state": "La Libertad", "county": null, "city": "Antiguo Cuscatl\u00e1n", "latitude": 13.683347, "longitude": -89.246822, "dateDedicated": "2011-08-21T00:00:00Z", "templeStatusId": 1}, {"slug": "santa-ana-el-salvador", "name": "Santa Ana El Salvador Temple", "country": "El Salvador", "state": null, "county": null, "city": "Santa Ana", "latitude": null, "longitude": null, "dateDedicated": null, "templeStatusId": 4}, {"slug": "santa-cruz-bolivia", "name": "Santa Cruz Bolivia Temple", "country": "Bolivia", "state": null, "county": null, "city": "Santa Cruz", "latitude": -17.73855162, "longitude": -63.17467, "dateDedicated": null, "templeStatusId": 3}, {"slug": "santiago-chile", "name": "Santiago Chile Temple", "country": "Chile", "state": "Region Metropolitana (Santiago)", "county": null, "city": "Santiago", "latitude": -33.436174, "longitude": -70.609521, "dateDedicated": "1983-09-15T00:00:00Z", "templeStatusId": 1}, {"slug": "santiago-dominican-republic", "name": "Santiago Dominican Republic Temple", "country": "Dominican Republic", "state": null, "county": null, "city": "Santiago", "latitude": null, "longitude": null, "dateDedicated": null, "templeStatusId": 4}, {"slug": "santiago-philippines", "name": "Santiago Philippines Temple", "country": "Philippines", "state": null, "county": null, "city": "Santiago", "latitude": null, "longitude": null, "dateDedicated": null, "templeStatusId": 4}, {"slug": "santiago-west-chile", "name": "Santiago West Chile Temple", "country": "Chile", "state": null, "county": null, "city": "Santiago", "latitude": -33.49280249, "longitude": -70.73773, "dateDedicated": null, "templeStatusId": 3}, {"slug": "santo-domingo-dominican-republic", "name": "Santo Domingo Dominican Republic Temple", "country": "Dominican Republic", "state": "Distrito Nacional", "county": null, "city": "Santo Domingo", "latitude": 18.466567, "longitude": -69.917144, "dateDedicated": "2000-09-17T00:00:00Z", "templeStatusId": 1}, {"slug": "santos-brazil", "name": "Santos Brazil Temple", "country": "Brazil", "state": "S\u00e3o Paulo", "county": null, "city": "Santos", "latitude": -23.94286335, "longitude": -46.334198, "dateDedicated": null, "templeStatusId": 4}, {"slug": "sao-paulo-brazil", "name": "S\u00e3o Paulo Brazil Temple", "country": "Brazil", "state": "S\u00e3o Paulo", "county": null, "city": "S\u00e3o Paulo", "latitude": -23.585174, "longitude": -46.722764, "dateDedicated": "1978-10-30T00:00:00Z", "templeStatusId": 1}, {"slug": "sao-paulo-east-brazil", "name": "S\u00e3o Paulo East Brazil Temple", "country": "Brazil", "state": "SP", "county": null, "city": "S\u00e3o Paulo", "latitude": -23.55518816, "longitude": -46.54444, "dateDedicated": null, "templeStatusId": 4}, {"slug": "sapporo-japan", "name": "Sapporo Japan Temple", "country": "Japan", "state": "Hokkaido", "county": null, "city": "Sapporo", "latitude": 43.0249, "longitude": 141.4457, "dateDedicated": "2016-08-21T00:00:00Z", "templeStatusId": 1}, {"slug": "saratoga-springs-utah", "name": "Saratoga Springs Utah Temple", "country": "United States", "state": "Utah", "county": "Utah", "city": "Saratoga Springs", "latitude": 40.34422619, "longitude": -111.932607, "dateDedicated": "2023-08-13T00:00:00Z", "templeStatusId": 1}, {"slug": "savai-i-samoa", "name": "Savai'i Samoa Temple", "country": "Samoa", "state": "Savai'i", "county": null, "city": "Salelologa", "latitude": -13.75189602, "longitude": -172.2318, "dateDedicated": null, "templeStatusId": 4}, {"slug": "seattle-washington", "name": "Seattle Washington Temple", "country": "United States", "state": "Washington", "county": "King", "city": "Bellevue", "latitude": 47.58407, "longitude": -122.140876, "dateDedicated": "1980-11-17T00:00:00Z", "templeStatusId": 1}, {"slug": "seoul-korea", "name": "Seoul Korea Temple", "country": "South Korea", "state": "Seoul-teukbyeolsi", "county": null, "city": "Seoul", "latitude": 37.558913, "longitude": 126.931286, "dateDedicated": "1985-12-14T00:00:00Z", "templeStatusId": 1}, {"slug": "shanghai-people-s-republic-of-china", "name": "Shanghai People's Republic of China Temple", "country": "China", "state": null, "county": null, "city": "Shanghai", "latitude": null, "longitude": null, "dateDedicated": null, "templeStatusId": 4}, {"slug": "singapore", "name": "Singapore Temple", "country": "Singapore", "state": null, "county": null, "city": "Singapore", "latitude": 1.27995248, "longitude": 103.784842, "dateDedicated": null, "templeStatusId": 3}, {"slug": "smithfield-utah", "name": "Smithfield Utah Temple", "country": "United States", "state": "Utah", "county": "Cache", "city": "Smithfield", "latitude": 41.84012916, "longitude": -111.852673, "dateDedicated": null, "templeStatusId": 3}, {"slug": "snowflake-arizona", "name": "Snowflake Arizona Temple", "country": "United States", "state": "Arizona", "county": "Navajo", "city": "Snowflake", "latitude": 34.502494, "longitude": -110.111607, "dateDedicated": "2002-03-03T00:00:00Z", "templeStatusId": 1}, {"slug": "spanish-fork-utah", "name": "Spanish Fork Utah Temple", "country": "United States", "state": "Utah", "county": "Utah", "city": "Spanish Fork", "latitude": null, "longitude": null, "dateDedicated": null, "templeStatusId": 4}, {"slug": "spokane-washington", "name": "Spokane Washington Temple", "country": "United States", "state": "Washington", "county": "Spokane", "city": "Spokane", "latitude": 47.620163, "longitude": -117.22069, "dateDedicated": "1999-08-21T00:00:00Z", "templeStatusId": 1}, {"slug": "springfield-missouri", "name": "Springfield Missouri Temple", "country": "United States", "state": "Missouri", "county": "Greene", "city": "Springfield", "latitude": 37.10238963, "longitude": -93.243289, "dateDedicated": null, "templeStatusId": 4}, {"slug": "st-george-utah", "name": "St. George Utah Temple", "country": "United States", "state": "Utah", "county": "Washington", "city": "St. George", "latitude": 37.100535, "longitude": -113.578041, "dateDedicated": "1877-04-06T00:00:00Z", "templeStatusId": 1}, {"slug": "st-louis-missouri", "name": "St. Louis Missouri Temple", "country": "United States", "state": "Missouri", "county": "St. Louis", "city": "St. Louis", "latitude": 38.639651, "longitude": -90.464685, "dateDedicated": "1997-06-01T00:00:00Z", "templeStatusId": 1}, {"slug": "st-paul-minnesota", "name": "St. Paul Minnesota Temple", "country": "United States", "state": "Minnesota", "county": "Washington", "city": "Oakdale", "latitude": 44.980261, "longitude": -92.965199, "dateDedicated": "2000-01-09T00:00:00Z", "templeStatusId": 1}, {"slug": "star-valley-wyoming", "name": "Star Valley Wyoming Temple", "country": "United States", "state": "Wyoming", "county": "Lincoln", "city": "Afton", "latitude": 42.712073, "longitude": -110.932532, "dateDedicated": "2016-10-30T00:00:00Z", "templeStatusId": 1}, {"slug": "stockholm-sweden", "name": "Stockholm Sweden Temple", "country": "Sweden", "state": null, "county": null, "city": "V\u00e4sterhaninge", "latitude": 59.124676, "longitude": 18.109177, "dateDedicated": "1985-07-02T00:00:00Z", "templeStatusId": 2}, {"slug": "summit-new-jersey", "name": "Summit New Jersey Temple", "country": "United States", "state": "New Jersey", "county": "Union", "city": "Summit", "latitude": null, "longitude": null, "dateDedicated": null, "templeStatusId": 4}, {"slug": "suva-fiji", "name": "Suva Fiji Temple", "country": "Fiji", "state": "Suva", "county": null, "city": "Samabula", "latitude": -18.119705, "longitude": 178.438559, "dateDedicated": "2000-06-18T00:00:00Z", "templeStatusId": 1}, {"slug": "sydney-australia", "name": "Sydney Australia Temple", "country": "Australia", "state": "New South Wales", "county": null, "city": "Carlingford", "latitude": -33.775617, "longitude": 151.050592, "dateDedicated": "1984-09-20T00:00:00Z", "templeStatusId": 1}, {"slug": "syracuse-utah", "name": "Syracuse Utah Temple", "country": "United States", "state": "Utah", "county": "Davis", "city": "Syracuse", "latitude": 41.09907006, "longitude": -112.076303, "dateDedicated": "2025-06-08T00:00:00Z", "templeStatusId": 1}, {"slug": "tacloban-city-philippines", "name": "Tacloban City Philippines Temple", "country": "Philippines", "state": "Leyte", "county": null, "city": "Tacloban City", "latitude": 11.22377084, "longitude": 124.984491, "dateDedicated": null, "templeStatusId": 3}, {"slug": "tacoma-washington", "name": "Tacoma Washington Temple", "country": "United States", "state": "Washington", "county": "King", "city": "Federal Way", "latitude": 47.27419368, "longitude": -122.316361, "dateDedicated": null, "templeStatusId": 4}, {"slug": "taipei-taiwan", "name": "Taipei Taiwan Temple", "country": "Taiwan", "state": null, "county": null, "city": "Taipei", "latitude": 25.031377, "longitude": 121.527794, "dateDedicated": "1984-11-17T00:00:00Z", "templeStatusId": 1}, {"slug": "tallahassee-florida", "name": "Tallahassee Florida Temple", "country": "United States", "state": "Florida", "county": "Leon", "city": "Tallahassee", "latitude": 30.520117, "longitude": -84.238222, "dateDedicated": "2024-12-08T00:00:00Z", "templeStatusId": 1}, {"slug": "tampa-florida", "name": "Tampa Florida Temple", "country": "United States", "state": "Florida", "county": "Hillsborough", "city": "Riverview", "latitude": 27.90897415, "longitude": -82.349924, "dateDedicated": null, "templeStatusId": 3}, {"slug": "tampico-mexico", "name": "Tampico Mexico Temple", "country": "Mexico", "state": "Tamaulipas", "county": null, "city": "Ciudad Madero", "latitude": 22.254262, "longitude": -97.855869, "dateDedicated": "2000-05-20T00:00:00Z", "templeStatusId": 1}, {"slug": "tarawa-kiribati", "name": "Tarawa Kiribati Temple", "country": "Kiribati", "state": null, "county": null, "city": "Tarawa", "latitude": 1.34948484, "longitude": 173.040061, "dateDedicated": null, "templeStatusId": 3}, {"slug": "taylorsville-utah", "name": "Taylorsville Utah Temple", "country": "United States", "state": "Utah", "county": "Salt Lake", "city": "Taylorsville", "latitude": 40.66671159, "longitude": -111.95411, "dateDedicated": "2024-06-02T00:00:00Z", "templeStatusId": 1}, {"slug": "tegucigalpa-honduras", "name": "Tegucigalpa Honduras Temple", "country": "Honduras", "state": "Francisco Moraz\u00e1n", "county": null, "city": "Comayag\u00fcela, M.D.C.", "latitude": 14.052174, "longitude": -87.238019, "dateDedicated": "2013-03-17T00:00:00Z", "templeStatusId": 1}, {"slug": "teresina-brazil", "name": "Teresina Brazil Temple", "country": "Brazil", "state": "Piau\u00ed", "county": null, "city": "Teresina", "latitude": -5.08842094, "longitude": -42.779871, "dateDedicated": null, "templeStatusId": 4}, {"slug": "teton-river-idaho", "name": "Teton River Idaho Temple", "country": "United States", "state": "Idaho", "county": "Madison", "city": "Rexburg", "latitude": 43.86071465, "longitude": -111.7814, "dateDedicated": null, "templeStatusId": 3}, {"slug": "the-gila-valley-arizona", "name": "The Gila Valley Arizona Temple", "country": "United States", "state": "Arizona", "county": "Graham", "city": "Central", "latitude": 32.862971, "longitude": -109.789974, "dateDedicated": null, "templeStatusId": 1}, {"slug": "the-hague-netherlands", "name": "The Hague Netherlands Temple", "country": "Netherlands", "state": null, "county": null, "city": "Zoetermeer", "latitude": 52.054487, "longitude": 4.502979, "dateDedicated": "2002-09-08T00:00:00Z", "templeStatusId": 1}, {"slug": "tijuana-mexico", "name": "Tijuana Mexico Temple", "country": "Mexico", "state": "Baja California", "county": null, "city": "Tijuana", "latitude": 32.488713, "longitude": -116.929441, "dateDedicated": "2015-12-13T00:00:00Z", "templeStatusId": 1}, {"slug": "tokyo-japan", "name": "Tokyo Japan Temple", "country": "Japan", "state": null, "county": "Tokyo", "city": "Tokyo", "latitude": 35.652838, "longitude": 139.724539, "dateDedicated": "1980-10-27T00:00:00Z", "templeStatusId": 1}, {"slug": "toluca-mexico", "name": "Toluca Mexico Temple", "country": "Mexico", "state": "Estado de Mexico", "county": null, "city": "Metepec", "latitude": 19.25230253, "longitude": -99.626874, "dateDedicated": null, "templeStatusId": 4}, {"slug": "toronto-ontario", "name": "Toronto Ontario Temple", "country": "Canada", "state": "Ontario", "county": null, "city": "Brampton", "latitude": 43.744338, "longitude": -79.746059, "dateDedicated": "1990-08-25T00:00:00Z", "templeStatusId": 1}, {"slug": "torreon-mexico", "name": "Torre\u00f3n Mexico Temple", "country": "Mexico", "state": "Durango", "county": null, "city": "G\u00f3mez Palacio", "latitude": 25.55331849, "longitude": -103.499227, "dateDedicated": null, "templeStatusId": 3}, {"slug": "trujillo-peru", "name": "Trujillo Peru Temple", "country": "Peru", "state": "La Libertad", "county": "Huanchaco", "city": "Trujillo", "latitude": -8.100149, "longitude": -79.058515, "dateDedicated": "2015-06-21T00:00:00Z", "templeStatusId": 1}, {"slug": "tucson-arizona", "name": "Tucson Arizona Temple", "country": "United States", "state": "Arizona", "county": "Pima", "city": "Tucson", "latitude": 32.338454, "longitude": -110.949174, "dateDedicated": "2017-08-13T00:00:00Z", "templeStatusId": 1}, {"slug": "tuguegarao-city-philippines", "name": "Tuguegarao City Philippines Temple", "country": "Philippines", "state": null, "county": null, "city": "Tuguegarao City", "latitude": 17.65013413, "longitude": 121.751638, "dateDedicated": null, "templeStatusId": 4}, {"slug": "tula-mexico", "name": "Tula Mexico Temple", "country": "Mexico", "state": null, "county": null, "city": "Tula", "latitude": null, "longitude": null, "dateDedicated": null, "templeStatusId": 4}, {"slug": "tulsa-oklahoma", "name": "Tulsa Oklahoma Temple", "country": "United States", "state": "Oklahoma", "county": "Tulsa", "city": "Tulsa", "latitude": 36.09186775, "longitude": -95.826161, "dateDedicated": null, "templeStatusId": 4}, {"slug": "tuxtla-gutierrez-mexico", "name": "Tuxtla Guti\u00e9rrez Mexico Temple", "country": "Mexico", "state": "Chiapas", "county": null, "city": "Tuxtla Guti\u00e9rrez", "latitude": 16.764164, "longitude": -93.159155, "dateDedicated": "2000-03-12T00:00:00Z", "templeStatusId": 1}, {"slug": "twin-falls-idaho", "name": "Twin Falls Idaho Temple", "country": "United States", "state": "Idaho", "county": "Twin Falls", "city": "Twin Falls", "latitude": 42.586827, "longitude": -114.441509, "dateDedicated": "2008-08-24T00:00:00Z", "templeStatusId": 1}, {"slug": "ulaanbaatar-mongolia", "name": "Ulaanbaatar Mongolia Temple", "country": "Mongolia", "state": null, "county": null, "city": "Ulaanbaatar", "latitude": 47.86457353, "longitude": 106.8146598, "dateDedicated": null, "templeStatusId": 4}, {"slug": "urdaneta-philippines", "name": "Urdaneta Philippines Temple", "country": "Philippines", "state": "Pangasinan", "county": null, "city": "Urdaneta City", "latitude": 15.938567, "longitude": 120.581762, "dateDedicated": "2024-04-28T00:00:00Z", "templeStatusId": 1}, {"slug": "uturoa-french-polynesia", "name": "Uturoa French Polynesia Temple", "country": "French Polynesia", "state": "Ra\u02bbi\u0101tea", "county": null, "city": "Uturoa", "latitude": null, "longitude": null, "dateDedicated": null, "templeStatusId": 4}, {"slug": "uyo-nigeria", "name": "Uyo Nigeria Temple", "country": "Nigeria", "state": null, "county": null, "city": "Uyo", "latitude": null, "longitude": null, "dateDedicated": null, "templeStatusId": 4}, {"slug": "vancouver-british-columbia", "name": "Vancouver British Columbia Temple", "country": "Canada", "state": "British Columbia", "county": null, "city": "Langley", "latitude": 49.151212, "longitude": -122.658009, "dateDedicated": "2010-05-02T00:00:00Z", "templeStatusId": 1}, {"slug": "vancouver-washington", "name": "Vancouver Washington Temple", "country": "United States", "state": "Washington", "county": "Clark", "city": "Camas", "latitude": 45.60772261, "longitude": -122.46934, "dateDedicated": null, "templeStatusId": 3}, {"slug": "veracruz-mexico", "name": "Veracruz Mexico Temple", "country": "Mexico", "state": "Veracruz", "county": null, "city": "Boca del Rio", "latitude": 19.13441, "longitude": -96.10626, "dateDedicated": "2000-07-09T00:00:00Z", "templeStatusId": 1}, {"slug": "vernal-utah", "name": "Vernal Utah Temple", "country": "United States", "state": "Utah", "county": "Uintah", "city": "Vernal", "latitude": 40.453205, "longitude": -109.537413, "dateDedicated": "1997-11-02T00:00:00Z", "templeStatusId": 1}, {"slug": "victoria-british-columbia", "name": "Victoria British Columbia Temple", "country": "Canada", "state": "British Columbia", "county": null, "city": "Langford", "latitude": 48.45100261, "longitude": -123.52195, "dateDedicated": null, "templeStatusId": 4}, {"slug": "vienna-austria", "name": "Vienna Austria Temple", "country": "Austria", "state": null, "county": null, "city": "Vienna", "latitude": 48.24312657, "longitude": 16.3493719, "dateDedicated": null, "templeStatusId": 4}, {"slug": "villahermosa-mexico", "name": "Villahermosa Mexico Temple", "country": "Mexico", "state": "Tabasco", "county": null, "city": "Villahermosa", "latitude": 17.981276, "longitude": -92.937375, "dateDedicated": "2000-05-21T00:00:00Z", "templeStatusId": 1}, {"slug": "vina-del-mar-chile", "name": "Vi\u00f1a del Mar Chile Temple", "country": "Chile", "state": null, "county": null, "city": "Vi\u00f1a del Mar", "latitude": -33.02085481, "longitude": -71.5456912, "dateDedicated": null, "templeStatusId": 4}, {"slug": "vitoria-brazil", "name": "Vit\u00f3ria Brazil Temple", "country": "Brazil", "state": "Esp\u00edrito Santo", "county": null, "city": "Vit\u00f3ria", "latitude": -20.29637999, "longitude": -40.304767, "dateDedicated": null, "templeStatusId": 4}, {"slug": "washington-d-c", "name": "Washington D.C. Temple", "country": "United States", "state": "Maryland", "county": "Montgomery", "city": "Kensington", "latitude": 39.014079, "longitude": -77.065624, "dateDedicated": "1974-11-19T00:00:00Z", "templeStatusId": 1}, {"slug": "wellington-new-zealand", "name": "Wellington New Zealand Temple", "country": "New Zealand", "state": null, "county": null, "city": "Porirua", "latitude": -41.12326075, "longitude": 174.85459, "dateDedicated": null, "templeStatusId": 3}, {"slug": "west-jordan-utah", "name": "West Jordan Utah Temple", "country": "United States", "state": "Utah", "county": "Salt Lake", "city": "West Jordan", "latitude": 40.62038003, "longitude": -112.068361, "dateDedicated": null, "templeStatusId": 4}, {"slug": "wichita-kansas", "name": "Wichita Kansas Temple", "country": "United States", "state": "Kansas", "county": "Sedgwick", "city": "Wichita", "latitude": 37.77509379, "longitude": -97.373413, "dateDedicated": null, "templeStatusId": 3}, {"slug": "willamette-valley-oregon", "name": "Willamette Valley Oregon Temple", "country": "United States", "state": "Oregon", "county": "Lane", "city": "Springfield", "latitude": 44.08885894, "longitude": -123.03278, "dateDedicated": null, "templeStatusId": 3}, {"slug": "winchester-virginia", "name": "Winchester Virginia Temple", "country": "United States", "state": "Virginia", "county": "Frederick", "city": "Winchester", "latitude": 39.18827326, "longitude": -78.1913495, "dateDedicated": null, "templeStatusId": 3}, {"slug": "winnipeg-manitoba", "name": "Winnipeg Manitoba Temple", "country": "Canada", "state": "Manitoba", "county": null, "city": "Winnipeg", "latitude": 49.800544, "longitude": -97.195212, "dateDedicated": "2021-10-31T00:00:00Z", "templeStatusId": 1}, {"slug": "winter-quarters-nebraska", "name": "Winter Quarters Nebraska Temple", "country": "United States", "state": "Nebraska", "county": "Douglas", "city": "Omaha", "latitude": 41.334075, "longitude": -95.96619, "dateDedicated": "2001-04-22T00:00:00Z", "templeStatusId": 1}, {"slug": "yigo-guam", "name": "Yigo Guam Temple", "country": "Guam", "state": null, "county": null, "city": "Yigo", "latitude": 13.541741, "longitude": 144.890143, "dateDedicated": "2022-05-22T00:00:00Z", "templeStatusId": 1}, {"slug": "yorba-linda-california", "name": "Yorba Linda California Temple", "country": "United States", "state": "California", "county": "Orange", "city": "Yorba Linda", "latitude": 33.8983749, "longitude": -117.834721, "dateDedicated": null, "templeStatusId": 3}, {"slug": "yuma-arizona", "name": "Yuma Arizona Temple", "country": "United States", "state": "Arizona", "county": "Yuma", "city": "Yuma", "latitude": null, "longitude": null, "dateDedicated": null, "templeStatusId": 4}]